type,entity_name,location_id,project_id,address_primary,city,state,zip_code,latitude,longitude,technology,upload_speed_anticipated,download_speed_anticipated,,
F,BEAUREGARD VOLUNTEER FIRE PROTECTION DISTRICT 3 SUGARTOWN STATION,1028492735,CM61-BEAD-LA-DN-Multiple,3141 STATE HIGHWAY 113,SUGARTOWN,LA,70662,30.80375099182129,-93.01432037,61,20,100,,1
L,"INDIAN BRANCH HUNTING CLUB, INC.",1028492803,CM61-BEAD-LA-DN-Multiple,3695 HIGHWAY 113,SUGARTOWN,LA,70662,30.78898811340332,-93.0138855,61,20,100,,1
S,EAST BEAUREGARD ELEMENTARY SCHOOL,1028504722,CM61-BEAD-LA-DN-Multiple,5368 HIGHWAY 113,DERIDDER,LA,70634,30.745080947875977,-93.02780914,61,20,100,,1
L,JOHNSON BAYOU LIBRARY,1108141721,CM61-BEAD-LA-DN-Multiple,4586 GULF BEACH HIGHWAY,CAMERON,LA,70631,29.761890411376953,-93.5823822,61,20,100,,1
S,JOHNSON BAYOU HIGH SCHOOL,1108144438,CM61-BEAD-LA-DN-Multiple,6304 GULF BEACH HIGHWAY,CAMERON,LA,70631,29.762828826904297,-93.69513702,61,20,100,,1
F,FIRE PROTECTION DISTRICT 2 WARD 3,1305883276,CM61-BEAD-LA-DN-Multiple,9248 GULF HIGHWAY,LAKE CHARLES,LA,70607,30.06964111328125,-93.21369934,61,20,100,,1
F,PLAINVIEW COMMUNITY VOLUNTEER FIRE DEPARTMENT,2000003104,CM61-BEAD-LA-DN-Multiple,10941 STATE HIGHWAY 112,GLENMORA,LA,71433,30.93744,-92.76724,61,20,100,,1
S,VINCENT SETTLEMENT ELEMENTARY SCHOOL,1305888065,CM61-BEAD-LA-DN-Multiple,1072 VINCENT SETTLEMENT RD,SULPHUR,LA,70665,30.148387908935547,-93.35967255,61,20,100,,1
F,GRAND LAKE SWEET LAKE VOLUNTEER FIRE DEPARTMENT,2000002630,CM61-BEAD-LA-DN-Multiple,957 STATE HIGHWAY 384,LAKE CHARLES,LA,70605,30.01601,-93.19383,61,20,100,,1
F,CALCASIEU PARISH WARD 1 FIRE PROTECTION DISTRICT 1,2000003493,CM61-BEAD-LA-DN-Multiple,2888 CARDINAL LANE,LAKE CHARLES,LA,70611,30.3614,-93.14267,61,20,100,,1
F,CAMERON PARISH FIRE PROTECTION DISTRICT 9,2000003533,CM61-BEAD-LA-DN-Multiple,1523 OAK GROVE HIGHWAY,GRAND CHENIER,LA,70643,29.77513,-93.0379,61,20,100,,1
L,CAMERON PARISH LIBRARY AND BRANCHES,2000003624,CM61-BEAD-LA-DN-Multiple,983 MAIN ST,HACKBERRY,LA,70645,29.99333,-93.36475,61,20,100,,1
F,DRY CREEK FIRE DISTRICT 3,2000002374,CM61-BEAD-LA-DN-Multiple,8352 STATE HIGHWAY 394,DRY CREEK,LA,70637,30.66909,-93.04543,61,20,100,,1
S,EAST BEAUREGARD HIGH SCHOOL,2000002665,CM61-BEAD-LA-DN-Multiple,5364 HIGHWAY 113,DERIDDER,LA,70634,30.74553,-93.02596,61,20,100,,1
S,ABBEVILLE HIGH SCHOOL,1287637076,CM61-BEAD-LA-330-2001,1305 WILDCAT DR,ABBEVILLE,LA,70510,29.983190536499023,-92.10539246,50,1000,1000,,1
S,"South Louisiana Community College, Gulf Area Campus",1287652978,CM61-BEAD-LA-330-2001,1115 CLOVER ST,ABBEVILLE,LA,70510,29.97820884,-92.12404017,50,1000,1000,,1
S,WEST OUACHITA HIGH SCHOOL,1310705183,CM61-BEAD-LA-DN-Multiple,4061 CAPLES RD,WEST MONROE,LA,71292,32.427764892578125,-92.3374176,61,20,100,,1
S,CENTRAL ELEMENTARY SCHOOL,1310705533,CM61-BEAD-LA-330-2001,1163 HIGHWAY 151 S,CALHOUN,LA,71225,32.485477447509766,-92.35496521,50,1000,1000,,1
S,"VITA (Volunteer Instructors Teaching Adults), Nehemiah Projects of Acadiana",1387785903,CM61-BEAD-LA-330-2001,107 CONCORD ST,ABBEVILLE,LA,70510,29.9738913,-92.13587825,50,1000,1000,,1
F,ABBEVILLE POLICE DEPARTMENT,1413606975,CM61-BEAD-LA-330-2001,304 S STATE ST,ABBEVILLE,LA,70510,29.971040725708008,-92.13676453,50,1000,1000,,1
H,ABBEVILLE GENERAL HOSPITAL,1387788107,CM61-BEAD-LA-330-2001,118 N HOSPITAL DR,ABBEVILLE,LA,70510,29.973398208618164,-92.10844421,50,1000,1000,,1
S,"VITA (Volunteer Instructors Teaching Adults), LSU AG Center",1287636736,CM61-BEAD-LA-330-2001,1105 W PORT ST,ABBEVILLE,LA,70510,29.974821090698242,-92.14569447,50,1000,1000,,1
F,OUACHITA PARISH FIRE PROTECTION DISTRICT 1 FIRE STATION 12,2000002232,CM61-BEAD-LA-DN-Multiple,3947 CAPLES RD,WEST MONROE,LA,71292,32.42828,-92.33537,61,20,100,,1
F,OUACHITA PARISH FIRE PROTECTION DISTRICT 1 STATION 8 CALHOUN,2000002434,CM61-BEAD-LA-330-2001,133 COWBOY RD,CALHOUN,LA,71225,32.5198,-92.32546,50,1000,1000,,1
F,OUACHITA PARISH FIRE PROTECTION DISTRICT 1 STATION 16 - CARLTON,2000002668,CM61-BEAD-LA-330-2001,1257 STATE HIGHWAY 151 N,CALHOUN,LA,71225,32.53664,-92.36019,50,1000,1000,,1
S,CALHOUN MIDDLE SCHOOL,2000003348,CM61-BEAD-LA-330-2001,191 HIGHWAY 80,CALHOUN,LA,71225,32.51204,-92.35452,50,1000,1000,,1
S,CALHOUN ELEMENTARY SCHOOL,2000003691,CM61-BEAD-LA-330-2001,237 CALHOUN RD,CALHOUN,LA,71225,32.51108,-92.36405,50,1000,1000,,1
F,OUACHITA PARISH FIRE PROTECTION DISTRICT 1 STATION 6 - CHENIERE,1310666427,CM61-BEAD-LA-330-2001,152 CHENIERE DREW RD,WEST MONROE,LA,71291,32.52079772949219,-92.24440765,50,1000,1000,,1
S,"Louisiana Delta Community College, West Monroe Campus",1310697311,CM61-BEAD-LA-330-2001,609 Vocational Parkway,West Monroe,LA,71292,32.5062186,-92.2810849,50,1000,1000,,1
S,ERATH HIGH SCHOOL,2000002249,CM61-BEAD-LA-330-2001,808 S BRDWAY,ERATH,LA,70533,29.95267,-92.03571,50,1000,1000,,1
F,ERATH VOLUNTEER FIRE DEPARTMENT,2000002279,CM61-BEAD-LA-330-2001,209 S KIBBE ST,ERATH,LA,70533,29.95756,-92.03604,50,1000,1000,,1
F,ABBEVILLE FIRE DEPARTMENT,2000002385,CM61-BEAD-LA-330-2001,210 W VERMILION ST,ABBEVILLE,LA,70510,29.9766,-92.13605,50,1000,1000,,1
L,VERMILION PARISH LIBRARY,2000002451,CM61-BEAD-LA-330-2001,111 W EDWARD ST,ERATH,LA,70533,29.95741,-92.03512,50,1000,1000,,1
H,VERMILION PARISH HEALTH UNIT,2000002613,CM61-BEAD-LA-330-2001,2501 CHARITY ST,ABBEVILLE,LA,70510,29.97197,-92.10641,50,1000,1000,,1
F,VERMILION PARISH FIRE PROTECTION DISTRICT 13,2000002763,CM61-BEAD-LA-330-2001,18838 W STATE 82,ABBEVILLE,LA,70510,29.97418,-92.1356,50,1000,1000,,1
S,DELCAMBRE HIGH SCHOOL,2000002788,CM61-BEAD-LA-DN-Multiple,601 W MAIN ST,DELCAMBRE,LA,70528,29.94828,-91.99213,61,20,100,,1
S,VERMILION CATHOLIC HIGH SCHOOL,2000002850,CM61-BEAD-LA-330-2001,425 PARK AVE,ABBEVILLE,LA,70510,29.97941,-92.14043,50,1000,1000,,1
S,JAMES A. HEROD ELEMENTARY SCHOOL,2000002898,CM61-BEAD-LA-330-2001,120 ODEA ST,ABBEVILLE,LA,70510,29.97256,-92.10959,50,1000,1000,,1
F,VERMILION PARISH JAIL,2000002905,CM61-BEAD-LA-330-2001,14202 SAVOY RD,ABBEVILLE,LA,70510,29.9494,-92.09007,50,1000,1000,,1
S,DOZIER ELEMENTARY SCHOOL,2000002948,CM61-BEAD-LA-330-2001,415 W PRIMEAUX,ERATH,LA,70533,29.956,-92.0385,50,1000,1000,,1
F,HENRY VOLUNTEER FIRE DEPARTMENT,2000002955,CM61-BEAD-LA-330-2001,5010 FRANK RD,ERATH,LA,70533,29.90483,-92.05624,50,1000,1000,,1
F,ERATH VOLUNTEER FIRE DEPARTMENT,2000003119,CM61-BEAD-LA-330-2001,503 E VETERANS MEMORIAL DR,ERATH,LA,70533,29.96191,-92.02724,50,1000,1000,,1
L,DELCAMBRE BRANCH LIBRARY INC,2000003149,CM61-BEAD-LA-DN-Multiple,206 W MAIN ST,DELCAMBRE,LA,70528,29.94855,-91.98942,61,20,100,,1
S,J.H. WILLIAMS MIDDLE SCHOOL,2000003227,CM61-BEAD-LA-330-2001,1105 PRAIRIE AVE,ABBEVILLE,LA,70510,29.97495,-92.12518,50,1000,1000,,1
F,VERMILION PARISH SHERIFFS DEPARTMENT,2000003268,CM61-BEAD-LA-330-2001,101 S STATE ST,ABBEVILLE,LA,70510,29.97364,-92.1356,50,1000,1000,,1
F,ERATH POLICE DEPARTMENT,2000003549,CM61-BEAD-LA-330-2001,114 W BOURQUE ST,ERATH,LA,70533,29.9568,-92.03507,50,1000,1000,,1
S,DELCAMBRE ELEMENTARY SCHOOL,2000003799,CM61-BEAD-LA-DN-Multiple,706 MARTIN LUTHER KING DR,DELCAMBRE,LA,70528,29.95121,-91.99403,61,20,100,,1
F,ACADIAN AMBULANCE SERVICE INCORPORATED - ABBEVILLE STATION,2000003920,CM61-BEAD-LA-330-2001,218 W SUMMERS DR,ABBEVILLE,LA,70510,29.98316,-92.133,50,1000,1000,,1
F,PIERRE PART VOLUNTEER FIRE AND RESCUE STATION 1,2000002649,CM61-BEAD-LA-DN-Multiple,2552 LEE DR,PIERRE PART,LA,70339,29.99138,-91.19322,61,20,100,,1
S,PIERRE PART ELEMENTARY SCHOOL,2000003269,CM61-BEAD-LA-DN-Multiple,3321 HIGHWAY 70,PIERRE PART,LA,70339,29.96205,-91.21174,61,20,100,,1
L,ASSUMPTION PARISH LIBRARY,2000003415,CM61-BEAD-LA-DN-Multiple,1214 HIGHWAY 662,MORGAN CITY,LA,70380,29.71955,-91.06874,61,20,100,,1
F,PIERRE PART - BELLE RIVER VOLUNTEER FIRE DEPARTMENT STATION 3,2000003434,CM61-BEAD-LA-DN-Multiple,138 SHELL BEACH RD,PIERRE PART,LA,70339,29.91037,-91.19691,61,20,100,,1
F,BAYOU L'OURSE VOLUNTEER FIRE DEPARTMENT,2000003500,CM61-BEAD-LA-DN-Multiple,333 STATE HIGHWAY 663,MORGAN CITY,LA,70380,29.72036,-91.07306,61,20,100,,1
S,BAYOU L'OURSE PRIMARY SCHOOL,2000003645,CM61-BEAD-LA-DN-Multiple,1397 HIGHWAY 662,MORGAN CITY,LA,70380,29.71361,-91.07739,61,20,100,,1
F,PAINCOURTVILLE VOLUNTEER FIRE DEPARTMENT STATION 3,2000003806,CM61-BEAD-LA-DN-Multiple,838 STATE HIGHWAY 70,BELLE ROSE,LA,70341,30.01213,-91.11426,61,20,100,,1
F,ACADIAN AMBULANCE SERVICE INCORPORATED - ARNAUDVILLE STATION,2000002203,CM61-BEAD-LA-DN-Multiple,111 RUE DE JAUSIERS AVE,ARNAUDVILLE,LA,70512,30.39678,-91.93554,61,20,100,,1
F,CRANKTON VOLUNTEER FIRE DEPARTMENT STATION 2,2000002284,CM61-BEAD-LA-DN-Multiple,189 CREDEUR RD,SUNSET,LA,70584,30.34312,-92.10558,61,20,100,,1
F,CANKTON VOLUNTEER FIRE DEPARTMENT,2000002298,CM61-BEAD-LA-DN-Multiple,107 DANDURAND RD,CANKTON,LA,70584,30.34484,-92.11036,61,20,100,,1
S,KROTZ SPRINGS ELEMENTARY SCHOOL,2000002301,CM61-BEAD-LA-DN-Multiple,445 DIVISION ST,KROTZ SPRINGS,LA,70750,30.53781,-91.75609,61,20,100,,1
F,PORT BARRE FIRE DEPARTMENT,2000002733,CM61-BEAD-LA-DN-Multiple,514 SAIZAN ST,PORT BARRE,LA,70577,30.55559,-91.9576,61,20,100,,1
F,SAINT LANDRY PARISH FIRE PROTECTION DISTRICT 1,2000003768,CM61-BEAD-LA-DN-Multiple,313 DIVISION ST,KROTZ SPRINGS,LA,70750,30.53798,-91.75346,61,20,100,,1
F,ARNAUDVILLE POLICE DEPARTMENT,2000003837,CM61-BEAD-LA-DN-Multiple,107 RUE DE JAUSIERS AVE,ARNAUDVILLE,LA,70512,30.39642,-91.93539,61,20,100,,1
F,KROTZ SPRINGS POLICE DEPARTMENT,2000003211,CM61-BEAD-LA-DN-Multiple,224 MAIN ST,KROTZ SPRINGS,LA,70750,30.53692,-91.75222,61,20,100,,1
F,PORT BARRE POLICE DEPARTMENT,2000003311,CM61-BEAD-LA-DN-Multiple,498 SAIZAN AVE,PORT BARRE,LA,70577,30.55602,-91.95702,61,20,100,,1
S,BEAU CHENE HIGH SCHOOL,2000003385,CM61-BEAD-LA-DN-Multiple,7076 HIGHWAY 93,ARNAUDVILLE,LA,70512,30.40599,-92.00143,61,20,100,,1
S,J.S. AUCOIN ELEMENTARY SCHOOL,2000002438,CM61-BEAD-LA-DN-Multiple,739 JULIA ST,AMELIA,LA,70340,29.6639,-91.1039,61,20,100,,1
F,BELLE RIVER VOLUNTEER FIRE DEPARTMENT,2000002684,CM61-BEAD-LA-DN-Multiple,1207A STATE HIGHWAY 70,MORGAN CITY,LA,70380,29.7235,-91.18945,61,20,100,,1
L,ST MARY PARISH LIBRARY,2000002936,CM61-BEAD-LA-DN-Multiple,625 LAKE PALOURDE RD,AMELIA,LA,70340,29.66538,-91.10265,61,20,100,,1
S,PORT BARRE MIDDLE SCHOOL,2000003210,CM61-BEAD-LA-DN-Multiple,846 SAIZAN ST,PORT BARRE,LA,70577,30.5607,-91.95425,61,20,100,,1
L,BRANCH DERIDDER,1028495898,CM61-BEAD-LA-331-2003,1527 N PINE ST,DERIDDER,LA,70634,30.873577117919922,-93.28549194,50,1000,1000,,1
F,BEAUREGARD VOLUNTEER FIRE PROTECTION DISTRICT 4 THREE PINE STATION,1028493737,CM61-BEAD-LA-331-2003,354 THREE PINE CHURCH RD,DERIDDER,LA,70634,30.854713439941406,-93.20954895,50,1000,1000,,1
S,CARVER ELEMENTARY SCHOOL,1028506092,CM61-BEAD-LA-331-2003,220 MARTIN LUTHER KING DR,DERIDDER,LA,70634,30.844017028808594,-93.27270508,50,1000,1000,,1
F,DERIDDER FIRE DEPARTMENT - NORTH SIDE STATION,1028496886,CM61-BEAD-LA-331-2003,1809 N PINE ST,DERIDDER,LA,70634,30.87879753112793,-93.28553009,50,1000,1000,,1
H,BEAUREGARD PARISH HEALTH UNIT,1028497346,CM61-BEAD-LA-331-2003,216 EVANGELINE ST,DERIDDER,LA,70634,30.849040985107422,-93.27342987,50,1000,1000,,1
F,DERIDDER FIRE DEPARTMENT EASTSIDE STATION,1028497540,CM61-BEAD-LA-331-2003,201 MARTIN LUTHER KING DR,DERIDDER,LA,70634,30.845340728759766,-93.2715683,50,1000,1000,,1
S,LYNN OAKS SCHOOL,1039114157,CM61-BEAD-LA-331-2003,1 LYNN OAKS DR,BRAITHWAITE,LA,70040,29.86379623413086,-89.89380646,50,1000,1000,,1
F,SAINT BERNARD PARISH FIRE DISTRICT ENGINE 8,1039118946,CM61-BEAD-LA-331-2003,613 BAYOU RD,SAINT BERNARD,LA,70085,29.868167877197266,-89.87503052,50,1000,1000,,1
L,DUCROS MUSEUM & LIBRARY,1039120408,CM61-BEAD-LA-331-2003,1345 BAYOU RD,SAINT BERNARD,LA,70085,29.867992401123047,-89.86023712,50,1000,1000,,1
S,W. SMITH JR. ELEMENTARY SCHOOL,1039121011,CM61-BEAD-LA-331-2003,6701 ST BERNARD HIGHWAY,VIOLET,LA,70092,29.889972686767578,-89.89618683,50,1000,1000,,1
H,Ochsner Health Center - Belle Chasse,1056515129,CM61-BEAD-LA-331-2003,"7772 Highway 23, Suite A",Belle Chasse,LA,70037,29.8642324,-89.9989626,50,1000,1000,,1
F,PLAQUEMINES PARISH FIRE DISTRICT 2 BELLE CHASSE VOLUNTEER FIRE DEPARTMENT STATION 2,1056517662,CM61-BEAD-LA-331-2003,216 ENGINEERS RD,BELLE CHASSE,LA,70037,29.873281478881836,-90.01399994,50,1000,1000,,1
F,EASTERN LOUISIANA MENTAL HEALTH SYSTEM FIRE DEPARTMENT,1059504291,CM61-BEAD-LA-331-2003,4502 STATE HIGHWAY 951,JACKSON,LA,70748,30.832820892333984,-91.21183777,50,1000,1000,,1
F,JACKSON VOLUNTEER FIRE DEPARTMENT,1059504719,CM61-BEAD-LA-331-2003,1631 CHARTER ST,JACKSON,LA,70748,30.83736801147461,-91.21562195,50,1000,1000,,1
S,EAST FELICIANA HIGH SCHOOL,1059505201,CM61-BEAD-LA-331-2003,3501 HIGHWAY 10,JACKSON,LA,70748,30.834735870361328,-91.18819427,50,1000,1000,,1
F,ETHEL VOLUNTEER FIRE DEPARTMENT,1059505721,CM61-BEAD-LA-331-2003,9320 STATE HIGHWAY 955 E,ETHEL,LA,70730,30.771137237548828,-91.07118225,50,1000,1000,,1
F,PLAQUEMINES PARISH FIRE DISTRICT 5 BOOTHVILLE VENICE FIRE DEPARTMENT,1056514114,CM61-BEAD-LA-331-2003,42661 STATE HIGHWAY 23,VENICE,LA,70091,29.280567169189453,-89.35954285,50,1000,1000,,1
F,PLAQUEMINES PARISH AMBULANCE DEPARTMENT - BELLE CHASSE STATION,1056510882,CM61-BEAD-LA-331-2003,3712 MAIN ST,BELLE CHASSE,LA,70037,29.88812255859375,-89.97389221,50,1000,1000,,1
F,ACADIAN AMBULANCE SERVICE INCORPORATED - CLINTON STATION,1059510191,CM61-BEAD-LA-331-2003,10390 STATE HIGHWAY 10,ETHEL,LA,70730,30.858722686767578,-91.05033875,50,1000,1000,,1
S,"Baton Rouge Community College, Folkes Campus",1059510406,CM61-BEAD-LA-331-2003,3337 HIGHWAY 10,JACKSON,LA,70748,30.83528054,-91.193317,50,1000,1000,,1
F,WEST BATON ROUGE FIRE SUB - DISTRICT 4 / LOBDELL VOLUNTEER FIRE DEPARTMENT,1067120525,CM61-BEAD-LA-331-2003,2937 LAFITON LANE,PORT ALLEN,LA,70767,30.47754669189453,-91.24694061,50,1000,1000,,1
S,CHAMBERLIN ELEMENTARY SCHOOL,1067120697,CM61-BEAD-LA-331-2003,6024 SECTION RD,PORT ALLEN,LA,70767,30.53546142578125,-91.29618835,50,1000,1000,,1
S,DEVALL MIDDLE SCHOOL,1067124918,CM61-BEAD-LA-331-2003,11851 N RIVER RD,PORT ALLEN,LA,70767,30.54075050354004,-91.29340363,50,1000,1000,,1
S,HOLY FAMILY CATHOLIC SCHOOL,1067125382,CM61-BEAD-LA-331-2003,368 N JEFFERSON AVE,PORT ALLEN,LA,70767,30.455101013183594,-91.20483398,50,1000,1000,,1
S,LULING ELEMENTARY SCHOOL,1064539153,CM61-BEAD-LA-331-2003,904 SUGARHOUSE RD,LULING,LA,70070,29.92247200012207,-90.36805725,50,1000,1000,,1
S,NORCO ELEMENTARY SCHOOL,1064539501,CM61-BEAD-LA-331-2003,102 FIFTH ST,NORCO,LA,70079,30.009117126464844,-90.42073822,50,1000,1000,,1
S,MIMOSA PARK ELEMENTARY SCHOOL,1064539540,CM61-BEAD-LA-331-2003,222 BIRCH ST,LULING,LA,70070,29.909452438354492,-90.35114288,50,1000,1000,,1
F,BRUSLY VOLUNTEER FIRE DEPARTMENT,1067123579,CM61-BEAD-LA-331-2003,2141 ANTONIO RD,PORT ALLEN,LA,70767,30.405649185180664,-91.22914124,50,1000,1000,,1
L,ST CHARLES PARISH LIBRARY,1064573719,CM61-BEAD-LA-331-2003,197 GOOD HOPE ST,NORCO,LA,70079,30.001880645751953,-90.41051483,50,1000,1000,,1
S,HOLY FAMILY SCHOOL,1067121248,CM61-BEAD-LA-331-2003,335 N JEFFERSON AVE,PORT ALLEN,LA,70767,30.45497703552246,-91.20652771,50,1000,1000,,1
F,ACADIAN AMBULANCE SERVICE INCORPORATED - PORT ALLEN STATION,1067126720,CM61-BEAD-LA-331-2003,1880 COURT ST,PORT ALLEN,LA,70767,30.45199203491211,-91.22601318,50,1000,1000,,1
F,WEST BATON ROUGE PARISH JAIL,1067123518,CM61-BEAD-LA-331-2003,1150 NW DR,PORT ALLEN,LA,70767,30.501197814941406,-91.21641541,50,1000,1000,,1
F,WEST BATON ROUGE FIRE SUB - DISTRICT 1 / ADDIS VOLUNTEER FIRE DEPARTMENT STATION 2,1067122429,CM61-BEAD-LA-331-2003,4372 MAIN ST,ADDIS,LA,70710,30.353849411010742,-91.26742554,50,1000,1000,,1
F,WEST BATON ROUGE PARISH SHERIFFS DEPARTMENT,1067122941,CM61-BEAD-LA-331-2003,850 8TH ST,PORT ALLEN,LA,70767,30.45903778076172,-91.20632935,50,1000,1000,,1
F,WEST BATON ROUGE FIRE SUB - DISTRICT 3 / PORT ALLEN FIRE DEPARTMENT STATION 3,1067127239,CM61-BEAD-LA-331-2003,5080 ROSEDALE RD,PORT ALLEN,LA,70767,30.46881103515625,-91.27883911,50,1000,1000,,1
F,PORT ALLEN POLICE DEPARTMENT,1067127816,CM61-BEAD-LA-331-2003,375 COURT ST,PORT ALLEN,LA,70767,30.452341079711914,-91.20402527,50,1000,1000,,1
F,BRUSLY POLICE DEPARTMENT,1067128131,CM61-BEAD-LA-331-2003,150 E SAINT FRANCIS ST,BRUSLY,LA,70719,30.385801315307617,-91.24456787,50,1000,1000,,1
F,WEST BATON ROUGE FIRE SUB - DISTRICT 3 / PORT ALLEN FIRE DEPARTMENT STATION 2,1067128339,CM61-BEAD-LA-331-2003,2616 COURT ST,PORT ALLEN,LA,70767,30.451377868652344,-91.23971558,50,1000,1000,,1
F,WEST BATON ROUGE FIRE SUB - DISTRICT 1 / ADDIS VOLUNTEER FIRE DEPARTMENT STATION 1,1067128402,CM61-BEAD-LA-331-2003,4343 HARRIS ST,ADDIS,LA,70710,30.354598999023438,-91.26603699,50,1000,1000,,1
F,EAST FELICIANA PARISH SHERIFFS DEPARTMENT,1059504183,CM61-BEAD-LA-331-2003,11315 BANK ST,CLINTON,LA,70722,30.86621094,-91.01842499,50,1000,1000,,1
F,WASHINGTON PARISH FIRE DISTRICT 8,1083178700,CM61-BEAD-LA-331-2003,17172 LEE RD,FRANKLINTON,LA,70438,30.773521423339844,-90.06269073,50,1000,1000,,1
P,Housing Authority-Bogalusa,1083163689,CM61-BEAD-LA-331-2003,1015 UNION AVE,BOGALUSA,LA,70427,30.79443932,-89.87766221,50,1000,1000,,1
H,ST. CHARLES PARISH HOSPITAL,1064538379,CM61-BEAD-LA-331-2003,1057 PAUL MAILLARD RD,LULING,LA,70070,29.92418098449707,-90.37097931,50,1000,1000,,1
F,STONEWALL POLICE DEPARTMENT,1096078649,CM61-BEAD-LA-331-2003,1318 UNITED STATES HIGHWAY 171,STONEWALL,LA,71078,32.28116226196289,-93.82331085,50,1000,1000,,1
S,"River Parishes Community College, St. Charles Campus",1064559241,CM61-BEAD-LA-331-2003,13145 HIGHWAY 90,BOUTTE,LA,70039,29.90348136,-90.37768943,50,1000,1000,,1
F,ADDIS VOLUNTEER FIRE DEPARTMENT STATION 3 MAIN STATION,1067121796,CM61-BEAD-LA-331-2003,6875 STATE HIGHWAY 1 S,ADDIS,LA,70710,30.36981964111328,-91.2563858,50,1000,1000,,1
S,LUKEVILLE UPPER ELEMENTARY,1067121861,CM61-BEAD-LA-331-2003,6123 HIGHWAY 1 S,BRUSLY,LA,70719,30.381851196289062,-91.24726105,50,1000,1000,,1
S,CENTRAL ELEMENTARY SCHOOL,1144383730,CM61-BEAD-LA-331-2003,5701 HIGHWAY 531,DUBBERLY,LA,71024,32.48094559,-93.23612213,50,1000,1000,,1
F,PLAQUEMINE FIRE DEPARTMENT - NORTHSIDE STATION,1287239602,CM61-BEAD-LA-331-2003,23090 JACOB ST,PLAQUEMINE,LA,70764,30.296485900878906,-91.2386322,50,1000,1000,,1
H,WEST BATON ROUGE PARISH HEALTH DEPARTMENT,1067130641,CM61-BEAD-LA-331-2003,685 LOUISIANA AVE,PORT ALLEN,LA,70767,30.459823608398438,-91.20806122,50,1000,1000,,1
F,BOGALUSA FIRE DEPARTMENT STATION 1,1083162446,CM61-BEAD-LA-331-2003,200 ARKANSAS AVE,BOGALUSA,LA,70427,30.78613281,-89.86127472,50,1000,1000,,1
L,WASHINGTON PARISH LIBRARY SYS,1083168245,CM61-BEAD-LA-331-2003,304 AVE F,BOGALUSA,LA,70427,30.779888153076172,-89.86981201,50,1000,1000,,1
H,OUR LADY OF THE ANGELS HOSPITAL,1083168280,CM61-BEAD-LA-331-2003,433 PLAZA ST,BOGALUSA,LA,70427,30.778358459472656,-89.8693924,50,1000,1000,,1
F,WASHINGTON PARISH FIRE DISTRICT 7 STATION 2,1083170770,CM61-BEAD-LA-331-2003,17380 BILL BOOTY RD,BOGALUSA,LA,70427,30.777761459350586,-89.91529083,50,1000,1000,,1
S,FRANKLINTON JUNIOR HIGH SCHOOL,1083177509,CM61-BEAD-LA-331-2003,617 MAIN ST,FRANKLINTON,LA,70438,30.849857330322266,-90.15789795,50,1000,1000,,1
L,WASHINGTON PARISH LIBRARY SYS,1083177538,CM61-BEAD-LA-331-2003,825 FREE ST,FRANKLINTON,LA,70438,30.849136352539062,-90.15943909,50,1000,1000,,1
F,EMERGYSTAT AMBULANCE SERVICE,1083186834,CM61-BEAD-LA-331-2003,1906 WASHINGTON ST,FRANKLINTON,LA,70438,30.846298217773438,-90.14138031,50,1000,1000,,1
H,RIVERSIDE MEDICAL CENTER,1083187442,CM61-BEAD-LA-331-2003,1900 S MAIN ST,FRANKLINTON,LA,70438,30.834129333496094,-90.15286255,50,1000,1000,,1
S,YOUNG AUDIENCES CHARTER HIGH SCHOOL,1313974460,CM61-BEAD-LA-331-2003,418 4TH ST,GRETNA,LA,70053,29.917926788330078,-90.06118774,50,1000,1000,,1
H,Ochsner LSU Health Shreveport ‚Äì Spring Lake,1314543643,CM61-BEAD-LA-331-2003,819 W ESPLANADE AVE,KENNER,LA,70065,30.02040006,-90.25772844,50,1000,1000,,1
L,PARISH OF JEFFERSON,1315468346,CM61-BEAD-LA-331-2003,630 W ESPLANADE AVE,KENNER,LA,70065,30.022287368774414,-90.25943756,50,1000,1000,,1
F,EAST JEFFERSON PARISH LEVEE DISTRICT OFFICE POLICE DEPARTMENT,1316198308,CM61-BEAD-LA-331-2003,1135 LESAN DR,KENNER,LA,70062,29.986530303955078,-90.27893829,50,1000,1000,,1
S,WOODLAWN ELEMENTARY SCHOOL,1310700909,CM61-BEAD-LA-331-2003,5946 JONESBORO RD,WEST MONROE,LA,71292,32.413272857666016,-92.21559906,50,1000,1000,,1
S,WALTER L. COHEN COLLEGE PREP,1353936575,CM61-BEAD-LA-331-2003,3520 DRYADES ST,NEW ORLEANS,LA,70115,29.930126190185547,-90.09421539,50,1000,1000,,1
L,CITY OF NEW ORLEANS,1353925106,CM61-BEAD-LA-331-2003,1401 S CARROLLTON AVE,NEW ORLEANS,LA,70118,29.94856834411621,-90.12776947,50,1000,1000,,1
S,NOBLE MINDS,1353952218,CM61-BEAD-LA-331-2003,1333 S CARROLLTON AVE,NEW ORLEANS,LA,70118,29.94820213317871,-90.12822723,50,1000,1000,,1
S,LUSHER CHARTER SCHOOL,1353953843,CM61-BEAD-LA-331-2003,5624 FRERET ST,NEW ORLEANS,LA,70115,29.935222625732422,-90.11444855,50,1000,1000,,1
L,THE FRENCH LIBRARY LLC,1353959334,CM61-BEAD-LA-331-2003,3811 MAGAZINE ST,NEW ORLEANS,LA,70115,29.921607971191406,-90.09451294,50,1000,1000,,1
H,SEASIDE BEHAVIORAL CENTER,1353973720,CM61-BEAD-LA-331-2003,"3601 COLISEUM ST, 6TH FLOOR",NEW ORLEANS,LA,70115,29.92488670349121,-90.09320068,50,1000,1000,,1
H,Ochsner Therapy & Wellness - Tchoupitoulas,1353977164,CM61-BEAD-LA-331-2003,"5300 Tchoupitoulas St., Suite C1",New Orleans,LA,70115,29.9160586,-90.1168734,50,1000,1000,,1
S,RENEW ACCELERATED HIGH SCHOOL,1353977211,CM61-BEAD-LA-331-2003,3649 LAUREL ST,NEW ORLEANS,LA,70115,29.920011520385742,-90.09236145,50,1000,1000,,1
H,COMMUNITY CARE HOSPITAL,1353980250,CM61-BEAD-LA-331-2003,1421 GENERAL TAYLOR ST,NEW ORLEANS,LA,70115,29.926036834716797,-90.09597778,50,1000,1000,,1
S,ECOLE BILINGUE DE LA NOUVELLE ORLEANS,1353990657,CM61-BEAD-LA-331-2003,821 GENERAL PERSHING ST,NEW ORLEANS,LA,70115,29.92037010192871,-90.09989929,50,1000,1000,,1
F,CADDO PARISH SHERIFFS OFFICE - SOUTH SUBSTATION,1355473137,CM61-BEAD-LA-331-2003,3268 STAGE COACH RD,KEITHVILLE,LA,71047,32.36676788330078,-93.82332611,50,1000,1000,,1
S,KEITHVILLE ELEMENTARY/MIDDLE SCHOOL,1355555210,CM61-BEAD-LA-331-2003,12201 MANSFIELD RD,KEITHVILLE,LA,71047,32.342899322509766,-93.82540894,50,1000,1000,,1
F,DUBBERLY POLICE DEPARTMENT,1144383963,CM61-BEAD-LA-331-2003,1748 BRUSHWOOD DR,DUBBERLY,LA,71024,32.541343688964844,-93.23625183,50,1000,1000,,1
S,L.W. HIGGINS HIGH SCHOOL,1357669495,CM61-BEAD-LA-331-2003,7201 LAPALCO BOULEVARD,MARRERO,LA,70072,29.882646560668945,-90.12945557,50,1000,1000,,1
H,OCEANS BEHAVIORAL HOSPITAL OF GREATER NEW ORLEANS - GRETNA,1357670258,CM61-BEAD-LA-331-2003,229 BELLEMEADE BLVD,GRETNA,LA,70056,29.891141891479492,-90.03744507,50,1000,1000,,1
F,HEFLIN POLICE DEPARTMENT,1144386996,CM61-BEAD-LA-331-2003,"122 N CHURCH ST, HEFLIN VILLAGE OFFICE",HEFLIN,LA,71039,32.45746994018555,-93.26691437,50,1000,1000,,1
S,ATONEMENT LUTHERAN SCHOOL,1357674846,CM61-BEAD-LA-331-2003,6500 RIVERSIDE DR,METAIRIE,LA,70003,30.008920669555664,-90.21790314,50,1000,1000,,1
F,TULANE EMERGENCY MEDICAL SERVICES,2000002277,CM61-BEAD-LA-331-2003,6823 SAINT CHARLES AVE,NEW ORLEANS,LA,70118,29.93543,-90.12279,50,1000,1000,,1
L,US ARMY CORPS OF ENGINEERS,2000002512,CM61-BEAD-LA-331-2003,7400 LEAKE AVE,NEW ORLEANS,LA,70118,29.93226,-90.13428,50,1000,1000,,1
S,HOLY NAME OF JESUS,2000003802,CM61-BEAD-LA-331-2003,6325 CROMWELL PL,NEW ORLEANS,LA,70118,29.93588,-90.11967,50,1000,1000,,1
S,UNIVERSITY OF NEW ORLEANS - JEFFERSON CAMPUS,1357677529,CM61-BEAD-LA-331-2003,3330 N CAUSEWAY,METAIRIE,LA,70002,30.01043128967285,-90.15541077,50,1000,1000,,1
S,Catholic Charities-Archdioceses of N.O. Our Lady of Divine Providence,1357679288,CM61-BEAD-LA-331-2003,972 N STARRETT RD,METAIRIE,LA,70003,29.9878867,-90.2253392,50,1000,1000,,1
S,JOHN Q. ADAMS MIDDLE SCHOOL,1357682208,CM61-BEAD-LA-331-2003,5525 HENICAN PLACE,METAIRIE,LA,70003,30.026580810546875,-90.20981598,50,1000,1000,,1
H,CRIMSON URGENT CARE,1357683658,CM61-BEAD-LA-331-2003,3001 RIDGELAKE DR,METAIRIE,LA,70002,30.005247116088867,-90.15326691,50,1000,1000,,1
F,CADDO PARISH FIRE DISTRICT 6,2000003287,CM61-BEAD-LA-331-2003,11450 OLD MANSFIELD RD,KEITHVILLE,LA,71047,32.32966,-93.83522,50,1000,1000,,1
H,WEST JEFFERSON MEDICAL CENTER,1357689133,CM61-BEAD-LA-331-2003,1101 MEDICAL CENTER BOULEVARD,MARRERO,LA,70072,29.89162254333496,-90.0945816,50,1000,1000,,1
H,CRESCENT CITY SURGICAL CENTRE,1357692807,CM61-BEAD-LA-331-2003,3017 GALLERIA DR,METAIRIE,LA,70001,29.99353027,-90.15310669,50,1000,1000,,1
S,MCDONOGH 26/HOMEDALE ELEMENTARY SCHOOL,1357692960,CM61-BEAD-LA-331-2003,1200 JEFFERSON ST,GRETNA,LA,70053,29.92660140991211,-90.05252075,50,1000,1000,,1
S,ELMWOOD PARK ACADEMY,1357717378,CM61-BEAD-LA-331-2003,1517 CAROL SUE AVE,GRETNA,LA,70056,29.900917053222656,-90.04246521,50,1000,1000,,1
S,RAY ST. PIERRE ACADEMY FOR ADVANCED STUDIES,1357717641,CM61-BEAD-LA-331-2003,2820 MOUNT KENNEDY DR,MARRERO,LA,70072,29.854602813720703,-90.11125183,50,1000,1000,,1
S,ESTELLE ELEMENTARY SCHOOL,1357717681,CM61-BEAD-LA-331-2003,2800 BARATARIA BOULEVARD,MARRERO,LA,70072,29.852420806884766,-90.11199188,50,1000,1000,,1
F,HARVEY VOLUNTEER FIRE COMPANY 2,1357699610,CM61-BEAD-LA-331-2003,2225 LAPALCO BOULEVARD,HARVEY,LA,70058,29.87270736694336,-90.05506897,50,1000,1000,,1
F,EASTBANK CONSOLIDATED FIRE DEPARTMENT STATION 13,1357719014,CM61-BEAD-LA-331-2003,4642 CALUMET ST,METAIRIE,LA,70001,29.97673225402832,-90.18138885,50,1000,1000,,1
S,THEODORE ROOSEVELT MIDDLE SCHOOL,1357700701,CM61-BEAD-LA-331-2003,3315 MAINE AVE,KENNER,LA,70065,30.016429901123047,-90.22992706,50,1000,1000,,1
H,WESTBANK URGENT CARE,1357720686,CM61-BEAD-LA-331-2003,148 WALL BOULEVARD,GRETNA,LA,70056,29.886940002441406,-90.03153229,50,1000,1000,,1
F,A - MED AMBULANCE SERVICE INCORPORATED,1357720751,CM61-BEAD-LA-331-2003,1800 MONROE ST,GRETNA,LA,70053,29.920766830444336,-90.05031586,50,1000,1000,,1
F,EASTBANK CONSOLIDATED FIRE DEPARTMENT STATION 11,1357721078,CM61-BEAD-LA-331-2003,3525 JEFFERSON HIGHWAY,JEFFERSON,LA,70121,29.963499069213867,-90.16175079,50,1000,1000,,1
S,A.C. ALEXANDER ELEMENTARY SCHOOL,1357721724,CM61-BEAD-LA-331-2003,600 W ESPLANADE AVE,KENNER,LA,70065,30.022977828979492,-90.26148987,50,1000,1000,,1
H,EAST JEFFERSON AFTER HOURS - KENNER,1357721728,CM61-BEAD-LA-331-2003,708 W ESPLANADE AVE,KENNER,LA,70065,30.022151947021484,-90.25827789,50,1000,1000,,1
S,STEPPING STONES MONTESSORI,1357722199,CM61-BEAD-LA-331-2003,552 TERRY PKWY,TERRYTOWN,LA,70056,29.905338287353516,-90.0304718,50,1000,1000,,1
H,WEST BANK HEALTH UNIT,1357724589,CM61-BEAD-LA-331-2003,1855 AMES BOULEVARD,MARRERO,LA,70072,29.882341384887695,-90.11218262,50,1000,1000,,1
S,BISSONET PLAZA ELEMENTARY SCHOOL,1357703477,CM61-BEAD-LA-331-2003,6818 KAWANEE AVE,METAIRIE,LA,70003,30.011566162109375,-90.21923828,50,1000,1000,,1
S,L.H. MARRERO MIDDLE SCHOOL,1357728490,CM61-BEAD-LA-331-2003,4100 SEVENTH ST,MARRERO,LA,70072,29.899463653564453,-90.091362,50,1000,1000,,1
S,G.T. WOODS ELEMENTARY SCHOOL,1357707465,CM61-BEAD-LA-331-2003,1037 31ST ST,KENNER,LA,70065,30.01049041748047,-90.25410461,50,1000,1000,,1
H,OMEGA HOSPITAL LLC,1357710128,CM61-BEAD-LA-331-2003,2525 SEVERN AVE,METAIRIE,LA,70002,29.999162673950195,-90.15920258,50,1000,1000,,1
H,Ochsner Depot,1357731400,CM61-BEAD-LA-331-2003,627 DISTRIBUTORS ROW,NEW ORLEANS,LA,70123,29.95294721,-90.18740141,50,1000,1000,,1
F,DAVID CROCKETT STEAM FIRE COMPANY 1 STATION 48,1357711709,CM61-BEAD-LA-331-2003,2000 HANCOCK ST,GRETNA,LA,70053,29.91868782043457,-90.04740906,50,1000,1000,,1
S,VANGUARD COLLEGE OF COSMETOLOGY-METAIRIE,1357734798,CM61-BEAD-LA-331-2003,3321 HESSMER AVE,METAIRIE,LA,70002,30.004798889160156,-90.16325378,50,1000,1000,,1
F,MARRERO ESTELLE VOLUNTEER FIRE DEPARTMENT COMPANY 1,1357735016,CM61-BEAD-LA-331-2003,2248 BARATARIA BOULEVARD,MARRERO,LA,70072,29.863170623779297,-90.09793091,50,1000,1000,,1
H,VALENTINE MEDICAL CENTER URGENT CARE,1357735226,CM61-BEAD-LA-331-2003,1620 BELLE CHASSE HIGHWAY,TERRYTOWN,LA,70056,29.896522521972656,-90.04253387,50,1000,1000,,1
S,THOMAS JEFFERSON HIGH SCHOOL FOR ADVANCED STUDIES,1357712442,CM61-BEAD-LA-331-2003,17 GRETNA BLVD.,GRETNA,LA,70053,29.91063690185547,-90.04631805,50,1000,1000,,1
H,Ochsner Emergency Room,1357735992,CM61-BEAD-LA-331-2003,4892 LAPALCO BLVD,MARRERO,LA,70072,29.87450047,-90.0943391,50,1000,1000,,1
L,PARISH OF JEFFERSON,1357737173,CM61-BEAD-LA-331-2003,680 HERITAGE AVE,GRETNA,LA,70056,29.903745651245117,-90.03541565,50,1000,1000,,1
S,ISLAMIC SCHOOL OF GREATER NEW ORLEANS,1357737239,CM61-BEAD-LA-331-2003,2420 ILLINOIS AVE,KENNER,LA,70062,30.00034523010254,-90.23749542,50,1000,1000,,1
F,HARVEY VOLUNTEER FIRE COMPANY 2,1357737556,CM61-BEAD-LA-331-2003,1801 GRETNA BOULEVARD,HARVEY,LA,70058,29.889741897583008,-90.06396484,50,1000,1000,,1
S,HARRY S. TRUMAN MIDDLE SCHOOL,1357737597,CM61-BEAD-LA-331-2003,5417 EHRET RD,MARRERO,LA,70072,29.860050201416016,-90.10588074,50,1000,1000,,1
L,PARISH OF JEFFERSON,1357738196,CM61-BEAD-LA-331-2003,6646 RIVERSIDE DR,METAIRIE,LA,70003,30.00929832458496,-90.22048187,50,1000,1000,,1
S,UNITECH TRAINING ACADEMY-WEST MONROE - METAIRIE CAMPUS,1357738199,CM61-BEAD-LA-331-2003,6660 RIVERSIDE DR #101,METAIRIE,LA,70003,30.008838653564453,-90.21961212,50,1000,1000,,1
S,MY LE'S BEAUTY COLLEGE,1357740010,CM61-BEAD-LA-331-2003,601 TERRY PARKWAY STE. A,GRETNA,LA,70056,29.90294647216797,-90.02911377,50,1000,1000,,1
H,Ochsner Health Center - Metairie,1357660252,CM61-BEAD-LA-331-2003,2005 Veterans Blvd.,Metairie,LA,70002,30.0032073,-90.1459563,50,1000,1000,,1
F,TERRYTOWN 5TH DISTRICT FIRE DEPARTMENT STATION 51,1357660958,CM61-BEAD-LA-331-2003,341 HERITAGE AVE,TERRYTOWN,LA,70056,29.911577224731445,-90.0328598,50,1000,1000,,1
H,CONCENTRA MEDICAL CENTER - KENNER,1357661524,CM61-BEAD-LA-331-2003,1600 WILLIAMS BOULEVARD,KENNER,LA,70062,29.98778725,-90.24216461,50,1000,1000,,1
S,JEFFERSON RISE CHARTER SCHOOL,1357746884,CM61-BEAD-LA-331-2003,501 LAPALCO BLVD,GRETNA,LA,70056,29.878406524658203,-90.03132629,50,1000,1000,,1
H,Ochsner Health Center - Lapalco,1357665652,CM61-BEAD-LA-331-2003,4225 LAPALCO BLVD,HARVEY,LA,70058,29.87342236,-90.08995166,50,1000,1000,,1
F,TERRYTOWN 5TH DISTRICT FIRE DEPARTMENT STATION 52,1357748861,CM61-BEAD-LA-331-2003,2201 CAROL SUE AVE,TERRYTOWN,LA,70056,29.89944076538086,-90.02223969,50,1000,1000,,1
S,JCFA,1357669041,CM61-BEAD-LA-331-2003,475 MANHATTAN BOULEVARD,HARVEY,LA,70058,29.90974235534668,-90.06951141,50,1000,1000,,1
S,LAUREATE ACADEMY CHARTER SCHOOL,1357751793,CM61-BEAD-LA-331-2003,2115 OAKMERE DR,HARVEY,LA,70058,29.866962432861328,-90.08612061,50,1000,1000,,1
S,KNIGHTS ACADEMY & HIGH SCHOOL LLC,1357754058,CM61-BEAD-LA-331-2003,2059 BONN ST,HARVEY,LA,70058,29.870758056640625,-90.08508301,50,1000,1000,,1
S,YOUNG AUDIENCES CHARTER SCHOOL,1357756485,CM61-BEAD-LA-331-2003,1407 VIRGIL ST,GRETNA,LA,70053,29.927322387695312,-90.0426712,50,1000,1000,,1
L,PARISH OF JEFFERSON,1357756842,CM61-BEAD-LA-331-2003,2350 METAIRIE RD,METAIRIE,LA,70001,29.98276710510254,-90.14923859,50,1000,1000,,1
S,PHOEBE HEARST SCHOOL,1357757153,CM61-BEAD-LA-331-2003,5208 WABASH ST,METAIRIE,LA,70001,29.99829102,-90.19560242,50,1000,1000,,1
S,HELEN COX HIGH SCHOOL,1357759198,CM61-BEAD-LA-331-2003,2200 LAPALCO BOULEVARD,HARVEY,LA,70058,29.874141693115234,-90.05532074,50,1000,1000,,1
F,GOULD FIRE COMPANY NUMBER 2,1357760338,CM61-BEAD-LA-331-2003,501 ANSON ST,GRETNA,LA,70053,29.928468704223633,-90.05335236,50,1000,1000,,1
F,MARRERO - ESTELLE VOLUNTEER FIRE DEPARTMENT STATION 84,1357760636,CM61-BEAD-LA-331-2003,3180 DESTREHAN AVE,HARVEY,LA,70058,29.854907989501953,-90.0708313,50,1000,1000,,1
L,JEFFERSON PARISH LIBRARY WESTBANK LIBRARIES,1357761238,CM61-BEAD-LA-331-2003,635 FOURTH ST,WESTWEGO,LA,70094,29.907546997070312,-90.14099121,50,1000,1000,,1
H,Ochsner Hospital for Orthopedics and Sports Medicine,1357761256,CM61-BEAD-LA-331-2003,"1221 South Clearview Parkway, Suites 100, 200, 300",Jefferson,LA,70121,29.9637224,-90.1843731,50,1000,1000,,1
S,GRACE KING HIGH SCHOOL,1357762262,CM61-BEAD-LA-331-2003,4301 GRACE KING PLACE,METAIRIE,LA,70002,30.013050079345703,-90.16662598,50,1000,1000,,1
F,HARVEY VOLUNTEER FIRE COMPANY,1357763906,CM61-BEAD-LA-331-2003,3824 MANHATTAN BOULEVARD,HARVEY,LA,70058,29.85254669189453,-90.04499817,50,1000,1000,,1
F,NORCO VOLUNTEER FIRE DEPARTMENT,2000003016,CM61-BEAD-LA-331-2003,20 BARRECA ST,NORCO,LA,70079,29.99774,-90.41383,50,1000,1000,,1
S,ST. BERNARD MIDDLE SCHOOL,2000003020,CM61-BEAD-LA-331-2003,2601 TORRES DR,SAINT BERNARD,LA,70085,29.87313,-89.87431,50,1000,1000,,1
F,CADDO PARISH FIRE DISTRICT 4 - SUBSTATION 3,2000003130,CM61-BEAD-LA-331-2003,15137 FOUR FORKS RD,KEATCHIE,LA,71046,32.22123,-93.98592,50,1000,1000,,1
F,DESOTO PARISH EMERGENCY MEDICAL SERVICES STATION 3,2000002274,CM61-BEAD-LA-331-2003,5200 STATE HIGHWAY 3276,STONEWALL,LA,71078,32.28247,-93.82141,50,1000,1000,,1
F,CADDO PARISH FIRE DISTRICT 3,2000003043,CM61-BEAD-LA-331-2003,9081 UNITED STATES HIGHWAY 80,GREENWOOD,LA,71033,32.44271,-93.95913,50,1000,1000,,1
S,NORTH DESOTO LOWER ELEMENTARY SCHOOL,2000003082,CM61-BEAD-LA-331-2003,2623 HIGHWAY 171,STONEWALL,LA,71078,32.25314,-93.82327,50,1000,1000,,1
L,CITY OF MANSFIELD,2000003498,CM61-BEAD-LA-331-2003,808 HIGHWAY 171,STONEWALL,LA,71078,32.28717,-93.82527,50,1000,1000,,1
F,GREENWOOD POLICE DEPARTMENT,2000002567,CM61-BEAD-LA-331-2003,9299 GREENWOOD RD,GREENWOOD,LA,71033,32.4432,-93.97182,50,1000,1000,,1
F,CADDO PARISH FIRE DISTRICT 6 - SUBSTATION 3,2000002594,CM61-BEAD-LA-331-2003,VARDAMAN RD,KEITHVILLE,LA,71047,32.27161,-93.88103,50,1000,1000,,1
F,CADDO PARISH FIRE DISTRICT 4 - SUBSTATION 2,2000002651,CM61-BEAD-LA-331-2003,6126 COLQUITT RD,KEITHVILLE,LA,71047,32.35464,-93.87159,50,1000,1000,,1
F,CADDO PARISH FIRE DISTRICT 4 - SUBSTATION 4,2000002660,CM61-BEAD-LA-331-2003,11714 PROVIDENCE RD,SHREVEPORT,LA,71129,32.31915,-93.98384,50,1000,1000,,1
F,MODESTE FIRE DEPARTMENT,2000003473,CM61-BEAD-LA-331-2003,JULIEN LANE,DONALDSONVILLE,LA,70346,30.17071,-91.01678,50,1000,1000,,1
F,ASCENSION PARISH FIRE DISTRICT 1 - FIFTH WARD VOLUNTEER FIRE DEPARTMENT STATION 40,2000003531,CM61-BEAD-LA-331-2003,39110 STATE HIGHWAY 22,DARROW,LA,70725,30.13877,-90.95204,50,1000,1000,,1
F,CADDO PARISH FIRE DISTRICT 3,2000003795,CM61-BEAD-LA-331-2003,9081 US HIGHWAY 80,GREENWOOD,LA,71033,32.44181,-93.96453,50,1000,1000,,1
F,PAINCOURTVILLE VOLUNTEER FIRE DEPARTMENT STATION 2,2000003813,CM61-BEAD-LA-331-2003,7023 STATE HIGHWAY 1,BELLE ROSE,LA,70341,30.04717,-91.04565,50,1000,1000,,1
F,ACADIAN AMBULANCE SERVICE INCORPORATED - DONALDSONVILLE STATION,2000003824,CM61-BEAD-LA-331-2003,2171 STATE HIGHWAY 308,DONALDSONVILLE,LA,70346,30.09554,-91.02278,50,1000,1000,,1
L,SAINT TAMMANY PARISH LIBRARY,1302978398,CM61-BEAD-LA-331-2003,71683 LEVESON ST,ABITA SPRINGS,LA,70420,30.47812843322754,-90.03948975,50,1000,1000,,1
S,BAYOU LACOMBE MIDDLE SCHOOL,1302981565,CM61-BEAD-LA-331-2003,27527 ST JOSEPH,LACOMBE,LA,70445,30.315277099609375,-89.94329071,50,1000,1000,,1
S,BELLE ROSE MIDDLE SCHOOL,2000003899,CM61-BEAD-LA-331-2003,7177 HIGHWAY 1,BELLE ROSE,LA,70341,30.04625,-91.04581,50,1000,1000,,1
S,BELLE ROSE PRIMARY SCHOOL,2000003933,CM61-BEAD-LA-331-2003,7100 HIGHWAY 308,BELLE ROSE,LA,70341,30.04941,-91.04031,50,1000,1000,,1
L,LOUISIANA BRANCH OF AMERICAN ASSN OF PHYSICIANS FROM INDIA,1302984907,CM61-BEAD-LA-331-2003,72158 MILL RD,ABITA SPRINGS,LA,70420,30.478748321533203,-90.05515289,50,1000,1000,,1
F,SAINT TAMMANY PARISH FIRE PROTECTION DISTRICT3 STATION 33,1303080455,CM61-BEAD-LA-331-2003,64110 STATE HIGHWAY 434,LACOMBE,LA,70445,30.359268188476562,-89.91506958,50,1000,1000,,1
S,BOUTTE CHRISTIAN ACADEMY,2000002242,CM61-BEAD-LA-331-2003,13271 HIGHWAY 90,BOUTTE,LA,70039,29.90318,-90.38128,50,1000,1000,,1
F,NORCO AREA VOLUNTEER FIRE DEPARTMENT,2000002517,CM61-BEAD-LA-331-2003,17820 RIVER RD,MONTZ,LA,70068,30.0137,-90.46757,50,1000,1000,,1
F,LULING VOLUNTEER FIRE DEPARTMENT STATION 2,2000002541,CM61-BEAD-LA-331-2003,1603 PAUL MAILLARD RD,LULING,LA,70070,29.91375,-90.37928,50,1000,1000,,1
H,PLAQUEMINES PARISH HEALTH UNIT,2000002574,CM61-BEAD-LA-331-2003,3706 MAIN ST,BELLE CHASSE,LA,70037,29.88536,-89.97106,50,1000,1000,,1
L,WEST REGIONAL LIBRARY,2000002600,CM61-BEAD-LA-331-2003,105 LAKEWOOD DR,LULING,LA,70070,29.90829,-90.34669,50,1000,1000,,1
S,J.F. GAUTHIER SCHOOL,2000002619,CM61-BEAD-LA-331-2003,1200 E LA HIGHWAY 46,SAINT BERNARD,LA,70085,29.87255,-89.86104,50,1000,1000,,1
S,WOODLAWN MIDDLE SCHOOL,2000002870,CM61-BEAD-LA-331-2003,175 WOODLAWN SCHOOL RD,WEST MONROE,LA,71292,32.41379,-92.21476,50,1000,1000,,1
F,SAINT BERNARD PARISH FIRE DISTRICT ENGINE 10,2000002899,CM61-BEAD-LA-331-2003,3901 BAYOU RD,SAINT BERNARD,LA,70085,29.86024,-89.77649,50,1000,1000,,1
S,BELLE CHASSE ELEMENTARY SCHOOL,2000002920,CM61-BEAD-LA-331-2003,539 F. EDWARD HEBERT BLVD.,BELLE CHASSE,LA,70037,29.89189,-89.9764,50,1000,1000,,1
F,PLAQUEMINES PARISH FIRE DISTRICT 7 WOODLAWN FIRE DEPARTMENT,2000002975,CM61-BEAD-LA-331-2003,7139 STATE HIGHWAY 39,BRAITHWAITE,LA,70040,29.69161,-89.96606,50,1000,1000,,1
F,SAINT BERNARD PARISH FIRE DEPARTMENT STATION 8,2000003246,CM61-BEAD-LA-331-2003,613 BAYOU RD,BELLE CHASSE,LA,70037,29.82796,-90.0631,50,1000,1000,,1
F,PLAQUEMINES PARISH FIRE DISTRICT 6 LAKE HERMITAGE VOLUNTEER FIRE DEPARTMENT,2000003305,CM61-BEAD-LA-331-2003,2766 LAKE HERMITAGE RD,PORT SULPHUR,LA,70083,29.55907,-89.88483,50,1000,1000,,1
F,PLAQUEMINES PARISH AMBULANCE DEPARTMENT UNIT 1891,2000003547,CM61-BEAD-LA-331-2003,18039 STATE HIGHWAY 15,POINTE A LA HACHE,LA,70082,29.57787,-89.79585,50,1000,1000,,1
F,PLAQUEMINES PARISH FIRE DISTRICT 1 POINTE A LA HACHE VOLUNTEER FIRE DEPARTMENT,2000003573,CM61-BEAD-LA-331-2003,239 ADEMA LANE,POINTE A LA HACHE,LA,70082,29.57916,-89.79627,50,1000,1000,,1
S,LAKEWOOD ELEMENTARY SCHOOL,2000003618,CM61-BEAD-LA-331-2003,501 E HEATHER DR,LULING,LA,70070,29.9005,-90.34871,50,1000,1000,,1
S,BELLE CHASSE PRIMARY SCHOOL,2000003665,CM61-BEAD-LA-331-2003,601 F. EDWARD HEBERT BLVD.,BELLE CHASSE,LA,70037,29.89801,-89.98307,50,1000,1000,,1
S,JOHN JAY BEAUTY COLLEGE,2000003918,CM61-BEAD-LA-331-2003,2844 TENNESSEE AVE,KENNER,LA,70062,30.00747,-90.23035,50,1000,1000,,1
F,BRIDGE CITY VOLUNTEER FIRE COMPANY 1,2000003928,CM61-BEAD-LA-331-2003,2220 BRIDGE CITY AVE,BRIDGE CITY,LA,70094,29.93019,-90.17644,50,1000,1000,,1
S,WILLIAM HART ELEMENTARY SCHOOL,2000003937,CM61-BEAD-LA-331-2003,2001 HANCOCK ST,GRETNA,LA,70053,29.91863,-90.0483,50,1000,1000,,1
H,OCHSNER HOSPITAL FOR ORTHOPEDICS AND SPORTS MEDICINE,2000003957,CM61-BEAD-LA-331-2003,"1221 SOUTH CLEARVIEW PARKWAY, SUITES 100, 200, 300",JEFFERSON,LA,70121,29.96262222,-90.18401726,50,1000,1000,,1
L,SAINT TAMMANY PARISH LIBRARY,1302993113,CM61-BEAD-LA-331-2003,64580 HIGHWAY 41,PEARL RIVER,LA,70452,30.370641708374023,-89.76222229,50,1000,1000,,1
F,OUACHITA PARISH FIRE PROTECTION DISTRICT 1 STATION 4 KING STREET,1310661493,CM61-BEAD-LA-331-2003,514 KING ST,WEST MONROE,LA,71292,32.465553283691406,-92.170784,50,1000,1000,,1
F,SAINT TAMMANY PARISH FIRE DISTRICT 11 STATION 112,1303009078,CM61-BEAD-LA-331-2003,64279 STATE HIGHWAY 3081,PEARL RIVER,LA,70452,30.368667602539062,-89.74761963,50,1000,1000,,1
F,SAINT TAMMANY PARISH FIRE DISTRICT 3 STATION 32,1303013348,CM61-BEAD-LA-331-2003,60373 S MILL RD,LACOMBE,LA,70445,30.311647415161133,-89.91273499,50,1000,1000,,1
F,SAINT TAMMANY FIRE PROTECTION DISTRICT NUMBER 1 STATION 18,1303030203,CM61-BEAD-LA-331-2003,61735 AIRPORT RD,SLIDELL,LA,70460,30.32779884338379,-89.82626343,50,1000,1000,,1
F,SAINT TAMMANY PARISH FIRE DISTRICT 1 STATION 5,1303039435,CM61-BEAD-LA-331-2003,58405 HOLLY DR,SLIDELL,LA,70460,30.276376724243164,-89.84194183,50,1000,1000,,1
S,WASHINGTON MONTESSORI,1317452549,CM61-BEAD-LA-331-2003,606 CLAY ST,KENNER,LA,70062,29.97730827331543,-90.24173737,50,1000,1000,,1
L,QUACHITA PARISH PUBLIC LIBRARY SYSTEM - CPL. J.R. SEARCY MEMORIAL BRANCH,1310712677,CM61-BEAD-LA-331-2003,5775 JONESBORO RD,WEST MONROE,LA,71292,32.41141891479492,-92.20883942,50,1000,1000,,1
F,OUACHITA PARISH FIRE PROTECTION DISTRICT 1 STATION 10 LUNA,1310714599,CM61-BEAD-LA-331-2003,2323 STATE HIGHWAY 557,WEST MONROE,LA,71292,32.37083817,-92.20513153,50,1000,1000,,1
S,PINECREST ELEMENTARY/MIDDLE SCHOOL,1310725634,CM61-BEAD-LA-331-2003,3604 HIGHWAY 557,WEST MONROE,LA,71292,32.346744537353516,-92.22018433,50,1000,1000,,1
F,GOULD VOLUNTEER FIRE COMPANY,1312564851,CM61-BEAD-LA-331-2003,700 GRETNA BOULEVARD,GRETNA,LA,70053,29.897010803222656,-90.0472641,50,1000,1000,,1
S,SHIRLEY JOHNSON/GRETNA PARK ELEMENTARY SCHOOL,1312567340,CM61-BEAD-LA-331-2003,1130 GRETNA BOULEVARD,GRETNA,LA,70053,29.89413833618164,-90.05265045,50,1000,1000,,1
S,UNIVERSITY MONTESSORI SCHOOL,1353999348,CM61-BEAD-LA-331-2003,7508 BURTHE ST,NEW ORLEANS,LA,70118,29.941442489624023,-90.12766266,50,1000,1000,,1
S,SOPHIE B. WRIGHT INSTITUTE OF ACADEMIC EXCELLENCE,1354002378,CM61-BEAD-LA-331-2003,1426 NAPOLEON AVE,NEW ORLEANS,LA,70115,29.925457000732422,-90.10263062,50,1000,1000,,1
F,NEW ORLEANS FIRE DEPARTMENT ENGINE 15 AND LADDER 5,1354005565,CM61-BEAD-LA-331-2003,1211 ARABELLA ST,NEW ORLEANS,LA,70115,29.925308227539062,-90.11677551,50,1000,1000,,1
H,TOURO INFIRMARY,1354034297,CM61-BEAD-LA-331-2003,1401 FOUCHER ST,NEW ORLEANS,LA,70115,29.92561912536621,-90.09226227,50,1000,1000,,1
F,CADDO PARISH FIRE DISTRICT 5 STATION 1,1355552722,CM61-BEAD-LA-331-2003,1675 LEONARD RD,SHREVEPORT,LA,71115,32.374176025390625,-93.67380524,50,1000,1000,,1
F,CADDO PARISH FIRE DISTRICT 4,1355556375,CM61-BEAD-LA-331-2003,8240 COLQUITT RD,KEITHVILLE,LA,71047,32.312171936035156,-93.94303131,50,1000,1000,,1
S,CONGETTA TRIPPE JANET ELEMENTARY SCHOOL,1413588335,CM61-BEAD-LA-331-2003,2500 BENT TREE LANE,MARRERO,LA,70072,29.848901748657227,-90.10106659,50,1000,1000,,1
S,GEORGE COX ELEMENTARY SCHOOL,1413588983,CM61-BEAD-LA-331-2003,2630 BELLE CHASSE HIGHWAY,TERRYTOWN,LA,70056,29.882699966430664,-90.02510834,50,1000,1000,,1
S,RIVERDALE MIDDLE SCHOOL,1413589318,CM61-BEAD-LA-331-2003,3900 JEFFERSON HIGHWAY,JEFFERSON,LA,70121,29.960847854614258,-90.16638947,50,1000,1000,,1
S,HERZING UNIVERSITY-NEW ORLEANS,1413589762,CM61-BEAD-LA-331-2003,3900 N CAUSEWAY BLVD.,METAIRIE,LA,70002,30.01923179626465,-90.15563202,50,1000,1000,,1
S,WOODLAND WEST ELEMENTARY SCHOOL,1413589776,CM61-BEAD-LA-331-2003,2143 MARS ST,HARVEY,LA,70058,29.86518669128418,-90.05307007,50,1000,1000,,1
S,EAST JEFFERSON HIGH SCHOOL,1413589829,CM61-BEAD-LA-331-2003,400 PHLOX ST,METAIRIE,LA,70001,29.979536056518555,-90.18200684,50,1000,1000,,1
H,Ochsner Therapy & Wellness for Children - Metairie,1451652235,CM61-BEAD-LA-331-2003,3211 N. Causeway Blvd.,Metairie,LA,70002,30.0080488,-90.1545511,50,1000,1000,,1
S,JOSEPH A. CUILLIER SR. CAREER CENTER,2000002224,CM61-BEAD-LA-331-2003,1429-B AMES BOULEVARD,MARRERO,LA,70072,29.88866,-90.11156,50,1000,1000,,1
H,Ochsner Health Center - West Bank,2000002229,CM61-BEAD-LA-331-2003,"120 Ochsner Blvd., Suite 470",Gretna,LA,70056,29.88407,-90.02694,50,1000,1000,,1
S,HENRY FORD MIDDLE SCHOOL,2000002251,CM61-BEAD-LA-331-2003,435 S JAMIE BOULEVARD,AVONDALE,LA,70094,29.90054,-90.20598,50,1000,1000,,1
F,KENNER FIRE DEPARTMENT,2000002263,CM61-BEAD-LA-331-2003,2226 WILLIAMS BOULEVARD,KENNER,LA,70062,29.99692,-90.24081,50,1000,1000,,1
H,TULANE LAKESIDE HOSPITAL,1357637673,CM61-BEAD-LA-331-2003,4700 S I-10 SERVICE RD W,METAIRIE,LA,70001,29.996797561645508,-90.18672943,50,1000,1000,,1
F,AVONDALE VOLUNTEER FIRE DEPARTMENT,2000002343,CM61-BEAD-LA-331-2003,500 S JAMIE BOULEVARD,WESTWEGO,LA,70094,29.89916,-90.20779,50,1000,1000,,1
H,Ochsner Fitness Center - Harahan,2000002443,CM61-BEAD-LA-331-2003,"1200 South Clearview Parkway, Suite 128",Harahan,LA,70123,29.96153,-90.18747,50,1000,1000,,1
F,KNIGHT VOLUNTEER FIRE DEPARTMENT,2000002445,CM61-BEAD-LA-DN-Multiple,1895 HARVEY CROSSING RD,DE RIDDER,LA,70634,30.90173,-93.40399,61,20,100,,1
F,DAVID CROCKETT VOLUNTEER FIRE DEPARTMENT STATION 46,2000002482,CM61-BEAD-LA-331-2003,323 WEIDMAN ST,GRETNA,LA,70053,29.92624,-90.05498,50,1000,1000,,1
L,PARISH OF JEFFERSON,2000002515,CM61-BEAD-LA-331-2003,4747 W NAPOLEON AVE,METAIRIE,LA,70001,29.99489,-90.18559,50,1000,1000,,1
S,VISITATION OF OUR LADY SCHOOL,2000002531,CM61-BEAD-LA-331-2003,3520 AMES BLVD,MARRERO,LA,70072,29.85344,-90.10976,50,1000,1000,,1
S,KENNER DISCOVERY HEALTH SCIENCES ACADEMY,2000002595,CM61-BEAD-LA-331-2003,2504 MAINE AVE,KENNER,LA,70062,30.00121,-90.23216,50,1000,1000,,1
S,ATHLOS ACADEMY OF JEFFERSON PARISH,2000002603,CM61-BEAD-LA-331-2003,979 BEHRMAN HIGHWAY,TERRYTOWN,LA,70056,29.88735,-90.01833,50,1000,1000,,1
S,SEVENTH WARD ELEMENTARY SCHOOL,2000002654,CM61-BEAD-LA-331-2003,12012 AUDUBON RD,ABBEVILLE,LA,70510,29.87774,-92.16091,50,1000,1000,,1
F,WILMER VOLUNTEER FIRE DEPARTMENT STATION 2,2000002711,CM61-BEAD-LA-331-2003,20163 STATE HIGHWAY 16,AMITE,LA,70422,30.74446,-90.394,50,1000,1000,,1
F,MARRERO - RAGUSA VOLUNTEER FIRE DEPARTMENT,1357638163,CM61-BEAD-LA-331-2003,1400 BERGER RD,MARRERO,LA,70072,29.885541915893555,-90.12841034,50,1000,1000,,1
L,THE ADMINISTRATORS OF THE TULANE EDUCATIONAL FUND,2000002738,CM61-BEAD-LA-331-2003,6801 FRERET ST RM 304,NEW ORLEANS,LA,70118,29.9391,-90.12127,50,1000,1000,,1
F,JEFFERSON PARISH SHERIFF'S OFFICE,2000002743,CM61-BEAD-LA-331-2003,1233 WBANK EXPRESSWAY,HARVEY,LA,70058,29.86993,-90.06533,50,1000,1000,,1
F,WESTWEGO POLICE DEPARTMENT,2000002782,CM61-BEAD-LA-331-2003,417 AVE A,WESTWEGO,LA,70094,29.91147,-90.14355,50,1000,1000,,1
H,EAST JEFFERSON GENERAL HOSPITAL,2000002786,CM61-BEAD-LA-331-2003,4200 HOUMA BLVD,METAIRIE,LA,70006,30.01275,-90.18103,50,1000,1000,,1
H,NEW ORLEANS VETERANS RESOURCE CENTER,2000002798,CM61-BEAD-LA-331-2003,2200 VETERANS MEMORIAL BOULEVARD,KENNER,LA,70062,30.00706,-90.23787,50,1000,1000,,1
S,RIVERDALE HIGH SCHOOL,2000002812,CM61-BEAD-LA-331-2003,240 RIVERDALE DR,JEFFERSON,LA,70121,29.96006,-90.1663,50,1000,1000,,1
F,WESTWEGO VOLUNTEER FIRE DEPARTMENT STATION 92,2000002842,CM61-BEAD-LA-331-2003,300 COLUMBUS ST,WESTWEGO,LA,70094,29.90982,-90.1434,50,1000,1000,,1
F,NORTHROP GRUMAN SHIPBUILDING - AVONDALE FIRE DEPARTMENT,2000002857,CM61-BEAD-LA-331-2003,5100 RIVER RD,AVONDALE,LA,70094,29.91983,-90.19151,50,1000,1000,,1
L,THE ADMINISTRATORS OF THE TULANE EDUCATIONAL FUND,2000002865,CM61-BEAD-LA-331-2003,7001 FRERET ST,NEW ORLEANS,LA,70118,29.93965,-90.12239,50,1000,1000,,1
H,Ochsner Medical Complex - Clearview,2000002904,CM61-BEAD-LA-331-2003,4430 Veterans Memorial Blvd.,Metairie,LA,70006,30.00295,-90.18185,50,1000,1000,,1
S,GRETNA MIDDLE SCHOOL,2000002907,CM61-BEAD-LA-331-2003,910 GRETNA BOULEVARD,GRETNA,LA,70053,29.8948,-90.05048,50,1000,1000,,1
S,ST MARTIN'S EPISCOPAL SCHOOL,2000002932,CM61-BEAD-LA-331-2003,225 GREEN ACRES RD,METAIRIE,LA,70003,29.97811,-90.19064,50,1000,1000,,1
S,ACADEMY OF OUR LADY,2000002956,CM61-BEAD-LA-331-2003,5501 WBANK EXPY,MARRERO,LA,70072,29.89937,-90.10035,50,1000,1000,,1
S,ST CLETUS ELEMENTARY SCHOOL,2000002972,CM61-BEAD-LA-331-2003,3610 CLAIRE AVE,GRETNA,LA,70053,29.88473,-90.0445,50,1000,1000,,1
S,ST MATTHEW THE APOSTLE SCHOOL,2000003028,CM61-BEAD-LA-331-2003,10021 JEFFERSON HIGHWAY,RIVER RIDGE,LA,70123,29.96231,-90.22099,50,1000,1000,,1
S,CATHERINE STREHLE ELEMENTARY SCHOOL,2000003071,CM61-BEAD-LA-331-2003,178 MILLIE DR,AVONDALE,LA,70094,29.90476,-90.20865,50,1000,1000,,1
F,JEFFERSON PARISH SHERIFFS DEPARTMENT,2000003154,CM61-BEAD-LA-331-2003,"197 WBANK EXPRESSWAY, SUITE 1415",GRETNA,LA,70056,29.91465,-90.05396,50,1000,1000,,1
F,NEW ORLEANS INTERNATIONAL AIRPORT FIRE STATION,2000003190,CM61-BEAD-LA-331-2003,N FIREHOUSE RD,KENNER,LA,70062,29.98554,-90.26608,50,1000,1000,,1
L,JEFFERSON PARISH LIBRARY,2000003191,CM61-BEAD-LA-331-2003,128 SAUVE RD,NEW ORLEANS,LA,70123,29.96207,-90.21957,50,1000,1000,,1
F,PLAQUEMINE FIRE DEPARTMENT - SOUTHSIDE STATION,2000003205,CM61-BEAD-LA-331-2003,58230 ROBERTSON ST,PLAQUEMINE,LA,70764,30.27948,-91.23569,50,1000,1000,,1
S,IMMACULATE CONCEPTION SCHOOL,2000003222,CM61-BEAD-LA-331-2003,4520 6TH ST,MARRERO,LA,70072,29.90069,-90.09633,50,1000,1000,,1
S,LIGHTHOUSE CHRISTIAN ACADEMY,2000003228,CM61-BEAD-LA-331-2003,51453 HIGHWAY 443,LORANGER,LA,70446,30.6001,-90.39994,50,1000,1000,,1
S,Catholic Charities-Archdioceses of N.O. Tulane University,2000003265,CM61-BEAD-LA-331-2003,1229 Broadway St,New Orleans,LA,70118,29.94194,-90.12262,50,1000,1000,,1
S,HAMMOND HIGH MAGNET SCHOOL,2000003276,CM61-BEAD-LA-331-2003,45168 RIVER RD,HAMMOND,LA,70401,30.51675,-90.38124,50,1000,1000,,1
S,WEATHERFORD ACADEMY,2000003364,CM61-BEAD-LA-331-2003,613 FOURTH ST,WESTWEGO,LA,70094,29.90766,-90.14187,50,1000,1000,,1
S,OUR LADY PROMPT SUCCOR SCHOOL,2000003391,CM61-BEAD-LA-331-2003,531 AVE A,WESTWEGO,LA,70094,29.90902,-90.14561,50,1000,1000,,1
H,Ochsner Medical Center - West Bank Campus,2000003396,CM61-BEAD-LA-331-2003,2500 Belle Chasse Highway,Gretna,LA,70056,29.88441,-90.02741,50,1000,1000,,1
F,UNION PACIFIC RAILROAD POLICE DEPARTMENT,2000003424,CM61-BEAD-LA-331-2003,5245 RIVER RD,AVONDALE,LA,70094,29.91636,-90.1806,50,1000,1000,,1
F,HERBERT WALLACE MEMORIAL VOLUNTEER FIRE COMPANY,2000003440,CM61-BEAD-LA-331-2003,4040 US HIGHWAY 90 W,AVONDALE,LA,70094,29.91187,-90.2243,50,1000,1000,,1
F,HAMMOND FIRE DEPARTMENT STATION 5,2000003456,CM61-BEAD-LA-331-2003,2975 US HIGHWAY 190 E,HAMMOND,LA,70401,30.51234,-90.38123,50,1000,1000,,1
S,NEW ORLEANS CHARTER SCIENCE AND MATHEMATICS HS,2000003459,CM61-BEAD-LA-331-2003,5625 LOYOLA AVE,NEW ORLEANS,LA,70115,29.93334,-90.11465,50,1000,1000,,1
H,UNITED MEDICAL HEALTHWEST - NEW ORLEANS,1357640922,CM61-BEAD-LA-331-2003,"3201 WALL BOULEVARD, SUITE B",GRETNA,LA,70056,29.86598777770996,-90.0302887,50,1000,1000,,1
S,ST ELIZABETH ANN SETON SCHOOL,2000003472,CM61-BEAD-LA-331-2003,4119 SAINT ELIZABETH DR,KENNER,LA,70065,30.04068,-90.27764,50,1000,1000,,1
S,MILDRED S. HARRIS ELEMENTARY SCHOOL,2000003485,CM61-BEAD-LA-331-2003,1805 BRIDGE CITY AVE,BRIDGE CITY,LA,70094,29.92936,-90.17255,50,1000,1000,,1
S,JOHN MARTYN COMMUNITY SCHOOL,2000003517,CM61-BEAD-LA-331-2003,1108 SHREWSBURY RD,JEFFERSON,LA,70121,29.9669,-90.16141,50,1000,1000,,1
S,J.J. AUDUBON ELEMENTARY SCHOOL,2000003519,CM61-BEAD-LA-331-2003,200 W LOYOLA DR,KENNER,LA,70065,30.01908,-90.27267,50,1000,1000,,1
S,HEALTHCARE TRAINING INSTITUTE,2000003524,CM61-BEAD-LA-331-2003,322 WILLIAMS BOULEVARD,KENNER,LA,70062,29.97382,-90.24605,50,1000,1000,,1
S,WOODMERE ELEMENTARY,2000003525,CM61-BEAD-LA-331-2003,3191 ALEX KORNMAN BLVD.,HARVEY,LA,70058,29.85477,-90.0723,50,1000,1000,,1
S,ROOTED SCHOOL,2000003559,CM61-BEAD-LA-331-2003,4238 ST CHARLES AVE,NEW ORLEANS,LA,70115,29.92639,-90.10054,50,1000,1000,,1
S,ST STEPHEN CATHOLIC SCHOOL,2000003593,CM61-BEAD-LA-331-2003,1027 NAPOLEON AVE,NEW ORLEANS,LA,70115,29.92264,-90.10129,50,1000,1000,,1
S,HAZEL PARK/HILDA KNOFF SCHOOL,2000003603,CM61-BEAD-LA-331-2003,8809 JEFFERSON HIGHWAY,RIVER RIDGE,LA,70123,29.94465,-90.21262,50,1000,1000,,1
F,KENNER POLICE DEPARTMENT,2000003611,CM61-BEAD-LA-331-2003,500 VETERANS MEMORIAL BOULEVARD,KENNER,LA,70062,30.00613,-90.26378,50,1000,1000,,1
F,THIRD DISTRICT VOLUNTEER FIRE DEPARTMENT STATION 33,2000003650,CM61-BEAD-LA-331-2003,301 N LESTER AVE,METAIRIE,LA,70003,29.98028,-90.21915,50,1000,1000,,1
F,HARAHAN FIRE DEPARTMENT,2000003661,CM61-BEAD-LA-331-2003,1115 HICKORY AVE,HARAHAN,LA,70123,29.95379,-90.20161,50,1000,1000,,1
S,CONQUERING WORD CHRISTIAN ACADEMY,1357644913,CM61-BEAD-LA-331-2003,812 AVE F,MARRERO,LA,70072,29.896211624145508,-90.09858704,50,1000,1000,,1
S,FREDERICK DOUGLASS ELEMENTARY SCHOOL,1357646138,CM61-BEAD-LA-331-2003,1400 HUEY P. LONG AVE,GRETNA,LA,70053,29.907241821289062,-90.05848694,50,1000,1000,,1
F,CAUSEWAY POLICE DEPARTMENT,2000003688,CM61-BEAD-LA-331-2003,3943 N CAUSEWAY BOULEVARD,METAIRIE,LA,70002,30.02038,-90.15396,50,1000,1000,,1
F,EASTBANK CONSOLIDATED FIRE DEPARTMENT STATION 19,2000003762,CM61-BEAD-LA-331-2003,455 EDWARDS AVE,HARAHAN,LA,70123,29.94977,-90.19069,50,1000,1000,,1
S,ST PHILIP NERI SCHOOL,2000003793,CM61-BEAD-LA-331-2003,6600 KAWANEE AVE,METAIRIE,LA,70003,30.0107,-90.21552,50,1000,1000,,1
S,TERRYTOWN ELEMENTARY SCHOOL,2000003801,CM61-BEAD-LA-331-2003,550 E FOREST LAWN DR,TERRYTOWN,LA,70056,29.90436,-90.03243,50,1000,1000,,1
S,JCFA-EAST,2000003826,CM61-BEAD-LA-331-2003,3401 JEFFERSON HIGHWAY,JEFFERSON,LA,70121,29.96399,-90.16071,50,1000,1000,,1
S,HAMMOND EASTSIDE MAGNET,2000003829,CM61-BEAD-LA-331-2003,45050 RIVER RD,HAMMOND,LA,70401,30.51543,-90.37926,50,1000,1000,,1
F,ACADIAN AMBULANCE SERVICE OF NEW ORLEANS - GRETNA STATION,2000003876,CM61-BEAD-LA-331-2003,200A WRIGHT AVE,TERRYTOWN,LA,70056,29.91724,-90.0363,50,1000,1000,,1
S,CONCORDIA LUTHERAN SCHOOL,2000003884,CM61-BEAD-LA-331-2003,6700 WBANK EXPY # B,MARRERO,LA,70072,29.84901,-90.11281,50,1000,1000,,1
S,ARCHBISHOP SHAW HIGH SCHOOL,1357648418,CM61-BEAD-LA-331-2003,1000 BARATARIA BLVD,MARRERO,LA,70072,29.889657974243164,-90.09789276,50,1000,1000,,1
H,EAST BANK HEALTH UNIT,1357658604,CM61-BEAD-LA-331-2003,111 N CAUSEWAY BOULEVARD,METAIRIE,LA,70001,29.975236892700195,-90.15518951,50,1000,1000,,1
S,VICTORY CHRISTIAN ACADEMY,1357658799,CM61-BEAD-LA-331-2003,5708 AIRLINE DR,METAIRIE,LA,70003,29.97503662109375,-90.19329834,50,1000,1000,,1
S,"Delgado Community College, Jefferson Campus",1357658802,CM61-BEAD-LA-331-2003,5200 BLAIR ST,METAIRIE,LA,70001,29.97466848,-90.18927369,50,1000,1000,,1
F,SAINT TAMMANY PARISH FIRE PROTECTION DISTRICT 12 STATION 123,1388234448,CM61-BEAD-LA-331-2003,19442 WYMER RD,COVINGTON,LA,70435,30.522172927856445,-90.07785034,50,1000,1000,,1
S,WEST JEFFERSON HIGH SCHOOL,1357773030,CM61-BEAD-LA-331-2003,2200 EIGHTH ST,HARVEY,LA,70058,29.903270721435547,-90.07462311,50,1000,1000,,1
H,Ochsner Health Center for Children - Metairie,1357774884,CM61-BEAD-LA-331-2003,4901 Veterans Memorial Boulevard,Metairie,LA,70006,30.0064987,-90.193484,50,1000,1000,,1
S,MILLER WALL ELEMENTARY SCHOOL,1357775959,CM61-BEAD-LA-331-2003,2001 BONNIE ANN DR,MARRERO,LA,70072,29.871015548706055,-90.1084137,50,1000,1000,,1
S,GREEN PARK ELEMENTARY SCHOOL,1357778453,CM61-BEAD-LA-331-2003,1409 N UPLAND ST,METAIRIE,LA,70003,29.991195678710938,-90.22162628,50,1000,1000,,1
F,WESTWEGO VOLUNTEER FIRE DEPARTMENT STATION 94,1357779669,CM61-BEAD-LA-331-2003,206 LOUISIANA ST,WESTWEGO,LA,70094,29.906457901000977,-90.1497879,50,1000,1000,,1
S,BLUE CLIFF COLLEGE-METAIRIE,1357780410,CM61-BEAD-LA-331-2003,3200 CLEARY AVE,METAIRIE,LA,70002,30.002670288085938,-90.17282867,50,1000,1000,,1
S,OUR LADY PERPETUAL HELP SCHOOL,1357784320,CM61-BEAD-LA-331-2003,531 WILLIAMS BLVD,KENNER,LA,70062,29.97673797607422,-90.24617004,50,1000,1000,,1
S,"Delgado Community College, Avondale Site",1357784924,CM61-BEAD-LA-331-2003,12 CHURCH HILL PKWY,WESTWEGO,LA,70094,29.89041351,-90.17857907,50,1000,1000,,1
S,BONELLA A. ST. VILLE ELEMENTARY SCHOOL,1357786425,CM61-BEAD-LA-331-2003,1121 PAILET ST,HARVEY,LA,70058,29.89592170715332,-90.07365417,50,1000,1000,,1
L,BRANCH LACOMBE LIBRARY,1413618667,CM61-BEAD-LA-331-2003,28027 HIGHWAY 190,LACOMBE,LA,70445,30.31326675415039,-89.94156647,50,1000,1000,,1
S,EASTERN LA MENTAL SYSTEM,2000002281,CM61-BEAD-LA-331-2003,HIGHWAY 10,JACKSON,LA,70748,30.83554,-91.20773,50,1000,1000,,1
H,"BEACON BEHAVIORAL HOSPITAL - NORTHSHORE, LLC",2000002411,CM61-BEAD-LA-331-2003,"64026 HIGHWAY 434, SUITE 300, 3RD FLOOR",LACOMBE,LA,70445,30.35645,-89.91615,50,1000,1000,,1
F,STEPHENSVILLE VOLUNTEER FIRE DEPARTMENT,2000002435,CM61-BEAD-LA-331-2003,1227 STEPHENSVILLE RD,MORGAN CITY,LA,70380,29.77771,-91.16975,50,1000,1000,,1
F,SAINT TAMMANY PARISH FIRE DISTRICT 11 STATION 111,2000002436,CM61-BEAD-LA-331-2003,37546 PINE ST EXTENSION,PEARL RIVER,LA,70452,30.36851,-89.77322,50,1000,1000,,1
H,FELICIANA-AMG SPECIALTY HOSPITAL,2000002476,CM61-BEAD-LA-331-2003,"9725 GRACE LANE, BLDG B",CLINTON,LA,70722,30.83656,-91.00071,50,1000,1000,,1
F,SAINT TAMMANY PARISH FIRE DISTRICT 3 STATION 31,2000002500,CM61-BEAD-LA-331-2003,60267 S 8TH ST,LACOMBE,LA,70445,30.31034,-89.93965,50,1000,1000,,1
S,CHAHTA-IMA ELEMENTARY SCHOOL,2000002502,CM61-BEAD-LA-331-2003,27488 PICHON RD,LACOMBE,LA,70445,30.31345,-89.9478,50,1000,1000,,1
S,JACKSON ELEMENTARY SCHOOL,2000002551,CM61-BEAD-LA-331-2003,3505 HIGHWAY 10,JACKSON,LA,70748,30.835,-91.1878,50,1000,1000,,1
F,SAINT TAMMANY PARISH FIRE DISTRICT 7 STATION 4,2000002767,CM61-BEAD-LA-331-2003,STATE HIGHWAY 41,PEARL RIVER,LA,70452,30.37179,-89.76455,50,1000,1000,,1
S,SOUTHERN MAGNOLIA MONTESSORI SCHOOL,2000002777,CM61-BEAD-LA-331-2003,72047 LIVE OAK ST,ABITA SPRINGS,LA,70420,30.47872,-90.03501,50,1000,1000,,1
F,SAINT TAMMANY PARISH FIRE PROTECTION DISTRICT - JOHN T PRATTS STATION 83,2000002779,CM61-BEAD-LA-331-2003,74200 STATE HIGHWAY 59,COVINGTON,LA,70435,30.50991,-90.04105,50,1000,1000,,1
F,SAINT TAMMANY PARISH FIRE DISTRICT 7 STATION 2,2000002823,CM61-BEAD-LA-331-2003,STATE HIGHWAY 435 SPUR,ABITA SPRINGS,LA,70420,30.48706,-90.02467,50,1000,1000,,1
F,BLUFF CREEK VOLUNTEER FIRE DEPARTMENT,2000002877,CM61-BEAD-LA-331-2003,15456 STATE HIGHWAY 959,CLINTON,LA,70722,30.76113,-90.88426,50,1000,1000,,1
S,DIXON CORRECTIONAL INSTITUTE,2000002946,CM61-BEAD-LA-331-2003,5568 HIGHWAY 68,JACKSON,LA,70748,30.8031,-91.20753,50,1000,1000,,1
H,EAST FELICIANA PARISH HEALTH DEPARTMENT,2000003045,CM61-BEAD-LA-331-2003,12080 MARSTON ST,CLINTON,LA,70722,30.86329,-91.02264,50,1000,1000,,1
F,JACKSON POLICE DEPARTMENT,2000003080,CM61-BEAD-LA-331-2003,1610 CHARTER ST,JACKSON,LA,70748,30.83725,-91.2159,50,1000,1000,,1
H,NORTH SHORE REHABILITATION HOSPITAL,2000003167,CM61-BEAD-LA-331-2003,"64030 HIGHWAY 434, 1ST AND 2ND FLOOR OF THE TOWER",LACOMBE,LA,70445,30.35753,-89.91567,50,1000,1000,,1
L,AUDUBON REGIONAL LIBRARY OF EAST FELICIANA PARISH,2000003388,CM61-BEAD-LA-331-2003,12220 WOODVILLE ST,CLINTON,LA,70722,30.86696,-91.01821,50,1000,1000,,1
F,PEARL RIVER POLICE DEPARTMENT,2000003625,CM61-BEAD-LA-331-2003,39470 WILLIS ALLEY,PEARL RIVER,LA,70452,30.37559,-89.74654,50,1000,1000,,1
S,ABITA SPRINGS MIDDLE SCHOOL,2000003662,CM61-BEAD-LA-331-2003,72079 MAPLE ST,ABITA SPRINGS,LA,70420,30.4793,-90.03808,50,1000,1000,,1
F,SAINT TAMMANY PARISH FIRE DISTRICT 3 STATION 31,2000003671,CM61-BEAD-LA-331-2003,27690 MAIN ST,LACOMBE,LA,70445,30.31153,-89.93913,50,1000,1000,,1
L,AUDUBON REGIONAL LIBRARY OF EAST FELICIANA PARISH,2000003707,CM61-BEAD-LA-331-2003,3312 COLLEGE ST,JACKSON,LA,70748,30.83941,-91.21387,50,1000,1000,,1
S,LAKESIDE JUNIOR-SENIOR HIGH SCHOOL,1388308694,CM61-BEAD-LA-331-2003,9090 HIGHWAY 371,SIBLEY,LA,71073,32.516502380371094,-93.30548096,50,1000,1000,,1
F,SAINT TAMMANY PARISH FIRE DISTRICT 8 STATION 83,2000003843,CM61-BEAD-LA-331-2003,75200 STATE HIGHWAY 59,ABITA SPRINGS,LA,70420,30.52017,-90.04037,50,1000,1000,,1
F,SAINT TAMMANY PARISH FIRE DISTRICT 3 TRAINING CENTER,2000003865,CM61-BEAD-LA-331-2003,29278 UNITED STATES HIGHWAY 190,LACOMBE,LA,70445,30.31171,-89.91396,50,1000,1000,,1
F,NORTHSHORE EMERGENCY MEDICAL SERVICES - HEADQUARTERS,1413611818,CM61-BEAD-LA-331-2003,153 MONTGOMERY ST,BOGALUSA,LA,70427,30.784862518310547,-89.85547638,50,1000,1000,,1
S,CENTRAL ELEMENTARY SCHOOL,2000002231,CM61-BEAD-LA-331-2003,420 SPARTAN'S AVE,BOGALUSA,LA,70427,30.76942,-89.85684,50,1000,1000,,1
F,WASHINGTON PARISH FIRE DISTRICT 2,2000002590,CM61-BEAD-LA-331-2003,41280 STATE HIGHWAY 10,FRANKLINTON,LA,70438,30.85397,-90.20854,50,1000,1000,,1
H,LSU BOGALUSA MEDICAL CENTER (OUTPATIENT CAMPUS),2000002731,CM61-BEAD-LA-331-2003,400 MEMPHIS ST,BOGALUSA,LA,70427,30.78929,-89.86037,50,1000,1000,,1
H,WASHINGTON PARISH HEALTH UNIT,2000002849,CM61-BEAD-LA-331-2003,626 CAROLINA AVE,BOGALUSA,LA,70427,30.78972,-89.85421,50,1000,1000,,1
S,BOGALUSA HIGH SCHOOL,2000002960,CM61-BEAD-LA-331-2003,100 M.J. ISRAEL DR,BOGALUSA,LA,70427,30.77946,-89.86597,50,1000,1000,,1
S,FRANKLINTON HIGH SCHOOL,2000002971,CM61-BEAD-LA-331-2003,1 DEMON CIRCLE,FRANKLINTON,LA,70438,30.85959,-90.1257,50,1000,1000,,1
S,FRANKLINTON PRIMARY SCHOOL,2000003000,CM61-BEAD-LA-331-2003,610 T.W BARKER DR,FRANKLINTON,LA,70438,30.8543,-90.14495,50,1000,1000,,1
F,BOGALUSA FIRE DEPARTMENT STATION 2,2000003219,CM61-BEAD-LA-331-2003,E 5TH ST,BOGALUSA,LA,70427,30.77419,-89.85207,50,1000,1000,,1
S,FRANKLINTON ELEMENTARY SCHOOL,2000003256,CM61-BEAD-LA-331-2003,345 JAGUAR DR,FRANKLINTON,LA,70438,30.84104,-90.16853,50,1000,1000,,1
F,FRANKLINTON VOLUNTEER FIRE DEPARTMENT,2000003499,CM61-BEAD-LA-331-2003,803 PEARL ST,FRANKLINTON,LA,70438,30.84335,-90.15586,50,1000,1000,,1
F,BOGALUSA POLICE DEPARTMENT,2000003914,CM61-BEAD-LA-331-2003,214 ARKANSAS AVE,BOGALUSA,LA,70427,30.78642,-89.86057,50,1000,1000,,1
F,WASHINGTON PARISH FIRE DISTRICT 1 STATION 2,2000003930,CM61-BEAD-LA-331-2003,19151 PETIT RD,FRANKLINTON,LA,70438,30.79994,-90.17696,50,1000,1000,,1
F,JEFFERSON PARISH EASTBANK CONSOLIDATED FIRE DEPARTMENT STATION 18,1388396218,CM61-BEAD-LA-331-2003,3430 N CAUSEWAY BOULEVARD,METAIRIE,LA,70002,30.01216697692871,-90.15542603,50,1000,1000,,1
S,ARCHBISHOP CHAPELLE HIGH SCHOOL,1388398129,CM61-BEAD-LA-331-2003,8800 VETERANS MEMORIAL BLVD,METAIRIE,LA,70003,30.003320693969727,-90.22239685,50,1000,1000,,1
S,KEHOE-FRANCE SCHOOL,1388398155,CM61-BEAD-LA-331-2003,720 ELISE AVE,METAIRIE,LA,70003,29.982486724853516,-90.19973755,50,1000,1000,,1
S,CHRIST THE KING ELEMENTARY SCHOOL,1388398912,CM61-BEAD-LA-331-2003,2106 DEERFIELD RD,TERRYTOWN,LA,70056,29.905298233032227,-90.02597046,50,1000,1000,,1
S,LINCOLN ELEMENTARY SCHOOL FOR THE ARTS,1388410849,CM61-BEAD-LA-331-2003,1429 AMES BLVD.,MARRERO,LA,70072,29.888647079467773,-90.11162567,50,1000,1000,,1
F,SIBLEY POLICE DEPARTMENT,2000002423,CM61-BEAD-LA-331-2003,"345 N MAIN ST, TOWN HALL",SIBLEY,LA,71073,32.54278,-93.2953,50,1000,1000,,1
F,BEAUREGARD VOLUNTEER FIRE PROTECTION DISTRICT 3 - LONGACRE STATION,2000002437,CM61-BEAD-LA-331-2003,750 LONGACRE RD,DERIDDER,LA,70634,30.84332,-93.1488,50,1000,1000,,1
L,BRANCH HEFLIN LIBRARY,2000002440,CM61-BEAD-LA-331-2003,7041 HIGHWAY 531,HEFLIN,LA,71039,32.45485,-93.26536,50,1000,1000,,1
H,LOUISIANA URGENT CARE - BRUSLY,2000002657,CM61-BEAD-LA-331-2003,4451 STATE HIGHWAY 1 S,PORT ALLEN,LA,70767,30.4058,-91.23058,50,1000,1000,,1
S,BRUSLY UPPER ELEMENTARY SCHOOL,2000002693,CM61-BEAD-LA-331-2003,601 N KIRKLAND,BRUSLY,LA,70719,30.39046,-91.23306,50,1000,1000,,1
F,ADVANCED EMERGENCY MEDICAL SERVICES INCORPORATED STATION 2,2000002748,CM61-BEAD-LA-331-2003,365 N MAIN,SIBLEY,LA,71073,32.54293,-93.29555,50,1000,1000,,1
L,WEBSTER PARISH LIBRARY,2000002751,CM61-BEAD-LA-331-2003,127 SE 4TH AVE,SIBLEY,LA,71073,32.53418,-93.29536,50,1000,1000,,1
F,DERIDDER FIRE DEPARTMENT - EAST SIDE STATION,2000002804,CM61-BEAD-LA-331-2003,202 MARTIN LUTHER KING DR,DERIDDER,LA,70634,30.84406,-93.27262,50,1000,1000,,1
F,WEBSTER PARISH FIRE PROTECTION DISTRICT 4,2000002883,CM61-BEAD-LA-331-2003,838 STATE HIGHWAY 532,DUBBERLY,LA,71024,32.53993,-93.22169,50,1000,1000,,1
L,WEST BATON ROUGE PARISH LIBRARY,2000002947,CM61-BEAD-LA-331-2003,830 N ALEXANDER AVE,PORT ALLEN,LA,70767,30.45997,-91.21065,50,1000,1000,,1
S,PORT ALLEN HIGH SCHOOL,2000003054,CM61-BEAD-LA-331-2003,3553 ROSEDALE RD,PORT ALLEN,LA,70767,30.46085,-91.25793,50,1000,1000,,1
F,SIBLEY VOLUNTEER FIRE DEPARTMENT,2000003177,CM61-BEAD-LA-331-2003,117 SE 4TH AVE,SIBLEY,LA,71073,32.53465,-93.29536,50,1000,1000,,1
S,FIRST BAPTIST CHRISTIAN ACADEMY,2000003215,CM61-BEAD-LA-331-2003,2030 HIGHWAY 171,DERIDDER,LA,70634,30.84553,-93.25463,50,1000,1000,,1
F,ADDIS POLICE DEPARTMENT,2000003299,CM61-BEAD-LA-331-2003,7818 STATE HIGHWAY 1 S,ADDIS,LA,70710,30.35561,-91.25994,50,1000,1000,,1
F,HEFLIN VOLUNTEER FIRE DEPARTMENT,2000003301,CM61-BEAD-LA-331-2003,190 MEMORIAL PARK DR,HEFLIN,LA,71039,32.45747,-93.26803,50,1000,1000,,1
F,WEST BATON ROUGE FIRE SUB - DISTRICT 3 / PORT ALLEN FIRE DEPARTMENT STATION 1,2000003596,CM61-BEAD-LA-331-2003,750 N JEFFERSON AVE,PORT ALLEN,LA,70767,30.45873,-91.20548,50,1000,1000,,1
S,PORT ALLEN HIGH SCHOOL,2000003956,CM61-BEAD-LA-331-2003,3555 ROSEDALE RD,PORT ALLEN,LA,70767,30.46063968,-91.25176722,50,1000,1000,,1
F,BENTON FIRE DISTRICT 4 STATION 4,2000003647,CM61-BEAD-LA-332-2004,14634 STATE HIGHWAY 157,BENTON,LA,71006,32.70874,-93.57719,50,1000,1000,,1
F,QUITMAN VOLUNTEER FIRE DEPARTMENT STATION 2,2000002508,CM61-BEAD-LA-332-2004,131 STATE HIGHWAY 148,RUSTON,LA,71270,32.43184,-92.67616,50,1000,1000,,1
F,SAINT TAMMANY PARISH FIRE DISTRICT 6 STATION 3,2000003034,CM61-BEAD-LA-332-2004,22316 STATE HIGHWAY 40,BUSH,LA,70431,30.62636,-90.04362,50,1000,1000,,1
F,BIENVILLE PARISH FIRE PROTECTION DISTRICT WARDS 4 AND 5 STATION 7,1077411867,CM61-BEAD-LA-140-2005,309 STATE HIGHWAY 154,RINGGOLD,LA,71068,32.31780242919922,-93.40936279,50,50,200,,1
S,RINGGOLD ELEMENTARY SCHOOL,1077412292,CM61-BEAD-LA-140-2005,4044 BIENVILLE RD SUITE A,RINGGOLD,LA,71068,32.32291030883789,-93.26818848,50,50,200,,1
F,RINGGOLD POLICE DEPARTMENT,1077413129,CM61-BEAD-LA-140-2005,2135 HALL ST,RINGGOLD,LA,71068,32.329715728759766,-93.28679657,50,50,200,,1
F,PAFFORD EMERGENCY MEDICAL SERVICES,1077413022,CM61-BEAD-LA-140-2005,2741 MILL ST,RINGGOLD,LA,71068,32.328887939453125,-93.28109741,50,50,200,,1
F,BIENVILLE PARISH FIRE PROTECTION DISTRICT WARDS 4 AND 5 STATION 1,1077413096,CM61-BEAD-LA-140-2005,1721 MILITARY RD,RINGGOLD,LA,71068,32.323097229003906,-93.28123474,50,50,200,,1
L,CALCASIEU PARISH LIBRARY,1305857302,CM61-BEAD-LA-140-2005,113 HIGHWAY 109 S,STARKS,LA,70661,30.318710327148438,-93.66231537,50,50,200,,1
L,BRANCH BELCHER LIBRARY,2000002238,CM61-BEAD-LA-140-2005,409 CHARLES ST,BELCHER,LA,71004,32.74929,-93.83522,50,50,200,,1
S,HERNDON MAGNET SCHOOL,1355548751,CM61-BEAD-LA-140-2005,11845 GAMM RD,BELCHER,LA,71004,32.79935836791992,-93.87068176,50,50,200,,1
S,STARKS HIGH SCHOOL,2000002915,CM61-BEAD-LA-140-2005,137 HIGHWAY 10P S,STARKS,LA,70661,30.31548,-93.66183,50,50,200,,1
F,STARKS WARD 5 VOLUNTEER FIRE DEPARTMENT,2000003926,CM61-BEAD-LA-140-2005,4747 EVANGELINE HIGHWAY,STARKS,LA,70661,30.31465,-93.66463,50,50,200,,1
L,PARISH OF BIENVILLE,2000003322,CM61-BEAD-LA-140-2005,2078 HALL ST,RINGGOLD,LA,71068,32.32917,-93.28774,50,50,200,,1
S,PHOENIX HIGH SCHOOL,2000003413,CM61-BEAD-LA-DN-Multiple,12700 HIGHWAY 23,BRAITHWAITE,LA,70040,29.60108,-89.86232,61,20,100,,1
F,FOUR CORNERS VOLUNTEER FIRE DEPARTMENT STATION 4,2000002273,CM61-BEAD-LA-DN-Multiple,330 ALICE B RD,FRANKLIN,LA,70538,29.77647,-91.7561,61,20,100,,1
S,SOUTH PLAQUEMINES ELEMENTARY SCHOOL,1056514228,CM61-BEAD-LA-260-2008,218 SCHOOL RD,PORT SULPHUR,LA,70083,29.477561950683594,-89.69484711,50,1000,1000,,1
L,PLAQUEMINES PARISH LIBRARY,1056525918,CM61-BEAD-LA-260-2008,138 CIVIC DR,PORT SULPHUR,LA,70083,29.47985268,-89.69496155,50,1000,1000,,1
F,PLAQUEMINES PARISH AMBULANCE DEPARTMENT UNIT 1894,1056525997,CM61-BEAD-LA-260-2008,28028 STATE HIGHWAY 23,PORT SULPHUR,LA,70083,29.47764015197754,-89.69260406,50,1000,1000,,1
H,PLAQUEMINES MEDICAL CENTER,1056526361,CM61-BEAD-LA-260-2008,26851 STATE HIGHWAY 23,PORT SULPHUR,LA,70083,29.49470329284668,-89.71226501,50,1000,1000,,1
F,SAINT MARY PARISH VOLUNTEER FIRE DEPARTMENT SORREL COMMUNITY SUB STATION 2,1109303025,CM61-BEAD-LA-260-2008,137 SORREL BRIDGE APPROACH RD,JEANERETTE,LA,70544,29.891407012939453,-91.61515808,50,1000,1000,,1
S,LEBLANC ELEMENTARY SCHOOL,1287647873,CM61-BEAD-LA-260-2008,4511 E LA HIGHWAY 338,ABBEVILLE,LA,70510,30.014625549316406,-92.05469513,50,1000,1000,,1
F,CYPREMORT POINT VOLUNTEER FIRE DEPARTMENT,1109294032,CM61-BEAD-LA-260-2008,3104 STATE HIGHWAY 319,FRANKLIN,LA,70538,29.722898483276367,-91.8562851,50,1000,1000,,1
F,BURAS VOLUNTEER FIRE DEPARTMENT,2000002494,CM61-BEAD-LA-260-2008,35410 COUNTY HIGHWAY 11,BURAS,LA,70041,29.3572,-89.53066,50,1000,1000,,1
S,BOOTHVILLE-VENICE ELEMENTARY SCHOOL,2000002910,CM61-BEAD-LA-260-2008,#1 OILER DR,BOOTHVILLE,LA,70038,29.33587,-89.40655,50,1000,1000,,1
L,PLAQUEMINES PARISH LIBRARY,2000003240,CM61-BEAD-LA-260-2008,35572 HIGHWAY 11,BURAS,LA,70041,29.35624,-89.53001,50,1000,1000,,1
F,PLAQUEMINES PARISH AMBULANCE DEPARTMENT - BURAS STATION,2000003408,CM61-BEAD-LA-260-2008,35410 PARISH RD 11,BURAS,LA,70041,29.35182,-89.52467,50,1000,1000,,1
S,SOUTH PLAQUEMINES HIGH SCHOOL,2000003520,CM61-BEAD-LA-260-2008,34121 HIGHWAY 23,BURAS,LA,70041,29.35569,-89.53532,50,1000,1000,,1
F,PLAQUEMINES PARISH FIRE DISTRICT 3 PORT SULPHUR VOLUNTEER FIRE DEPARTMENT,2000003736,CM61-BEAD-LA-260-2008,11 CIVIC DR,PORT SULPHUR,LA,70083,29.47902,-89.69527,50,1000,1000,,1
S,NORTH VERMILION HIGH SCHOOL,2000002456,CM61-BEAD-LA-260-2008,11609 LA HIGHWAY 699,MAURICE,LA,70555,30.07906,-92.16428,50,1000,1000,,1
F,LEBLANC VOLUNTEER FIRE DEPARTMENT,2000002903,CM61-BEAD-LA-260-2008,3834 BARES RD,ABBEVILLE,LA,70510,30.03581,-92.02663,50,1000,1000,,1
F,MEAUX - NUNEZ VOLUNTEER FIRE DEPARTMENT,2000002916,CM61-BEAD-LA-260-2008,9124 ROMULES RD,ABBEVILLE,LA,70510,30.01859,-92.20811,50,1000,1000,,1
S,MEAUX ELEMENTARY SCHOOL,2000003304,CM61-BEAD-LA-260-2008,12419 LA HIGHWAY 696,ABBEVILLE,LA,70510,30.02091,-92.18376,50,1000,1000,,1
F,INDIAN BAYOU VOLUNTEER FIRE DEPARTMENT,2000003919,CM61-BEAD-LA-260-2008,4723 STATE HIGHWAY 700,KAPLAN,LA,70548,30.07391,-92.24216,50,1000,1000,,1
S,V. B. GLENCOE CHARTER SCHOOL,2000002557,CM61-BEAD-LA-260-2008,4491 HIGHWAY 83,FRANKLIN,LA,70538,29.81197,-91.66799,50,1000,1000,,1
F,SAINT MARY PARISH VOLUNTEER FIRE DEPARTMENT CENTRAL STATION / FOUR CORNERS COMMUNITY STATION 1,2000002900,CM61-BEAD-LA-260-2008,1205 BIG FOUR CORNERS RD,JEANERETTE,LA,70544,29.85076,-91.63902,50,1000,1000,,1
F,COTEAU HOLMES VOLUNTEER FIRE DEPARTMENT,2000002993,CM61-BEAD-LA-260-2008,1860 COTEAU HOLMES HIGHWAY,SAINT MARTINVILLE,LA,70582,30.1271,-91.72664,50,1000,1000,,1
F,SAINT MARY PARISH VOLUNTEER FIRE DEPARTMENT GLENCOE COMMUNITY SUBSTATION 3,2000003337,CM61-BEAD-LA-260-2008,4345 STATE HIGHWAY 83,FRANKLIN,LA,70538,29.81478,-91.66801,50,1000,1000,,1
S,BELLE CHASSE MIDDLE SCHOOL,2000003784,CM61-BEAD-LA-DN-Multiple,13476 HIGHWAY 23,BELLE CHASSE,LA,70037,29.73268,-90.00764,61,20,100,,1
S,"Northshore Technical Community College, Florida Parishes Campus",1066700258,CM61-BEAD-LA-200-2010,200 HUNCH LN,GREENSBURG,LA,70441,30.83335252,-90.6881891,71,20,100,,1
H,ST. HELENA PARISH HOSPITAL,1066705224,CM61-BEAD-LA-200-2010,16874 HIGHWAY 43,GREENSBURG,LA,70441,30.831192016601562,-90.66596985,71,20,100,,1
F,SAINT HELENA PARISH SHERIFFS DEPARTMENT / SAINT HELENA PARISH JAIL,2000002969,CM61-BEAD-LA-200-2010,387 SITMAN ST,GREENSBURG,LA,70441,30.82876,-90.66666,71,20,100,,1
F,GREENSBURG VOLUNTEER FIRE DEPARTMENT,2000002312,CM61-BEAD-LA-200-2010,13775 STATE HIGHWAY 37,GREENSBURG,LA,70441,30.81827,-90.67495,71,20,100,,1
S,ST. HELENA COLLEGE AND CAREER ACADEMY,2000002522,CM61-BEAD-LA-200-2010,14340 HIGHWAY 37,GREENSBURG,LA,70441,30.8285,-90.67185,71,20,100,,1
F,GREENSBURG POLICE DEPARTMENT,2000002717,CM61-BEAD-LA-200-2010,14516 STATE HIGHWAY 37,GREENSBURG,LA,70441,30.82984,-90.67088,71,20,100,,1
F,PINE GROVE VOLUNTEER FIRE DEPARTMENT,2000002861,CM61-BEAD-LA-200-2010,STATE HIGHWAY 16,PINE GROVE,LA,70453,30.69186,-90.8235,71,20,100,,1
H,SAINT HELENA PARISH HEALTH UNIT,2000003514,CM61-BEAD-LA-200-2010,53 N SECOND ST,GREENSBURG,LA,70441,30.83045,-90.66526,71,20,100,,1
F,HILLSDALE VOLUNTEER FIRE DEPARTMENT,2000003574,CM61-BEAD-LA-200-2010,3313 STATE HIGHWAY 1045,AMITE,LA,70422,30.74191,-90.61262,71,20,100,,1
S,ST. HELENA EARLY LEARNING CENTER,2000003684,CM61-BEAD-LA-200-2010,1590 LA 1042,GREENSBURG,LA,70441,30.8288,-90.69633,71,20,100,,1
F,NORTH HELENA VOLUNTEER FIRE DEPARTMENT,2000003702,CM61-BEAD-LA-200-2010,5138 HIGHWAY 1043,GREENSBURG,LA,70441,30.90918,-90.71717,71,20,100,,1
F,PINE GROVE VOLUNTEER FIRE DEPARTMENT,2000003894,CM61-BEAD-LA-200-2010,STATE HIGHWAYS 449 AND 16,PINE GROVE,LA,70453,30.70991,-90.75399,71,20,100,,1
L,ST HELENA BRANCH LIBRARY,2000003319,CM61-BEAD-LA-200-2010,S MAIN ST STE C,GREENSBURG,LA,70441,30.83036,-90.67681,71,20,100,,1
S,ST. HELENA ARTS AND TECHNOLOGY ACADEMY,2000003390,CM61-BEAD-LA-200-2010,1798 HIGHWAY 1042,GREENSBURG,LA,70441,30.82909,-90.69787,71,20,100,,1
F,SOUTH SECOND WARD FIRE DISTRICT,2000003179,CM61-BEAD-LA-200-2010,TURNER CHAPEL RD,GREENSBURG,LA,70441,30.83124,-90.69344,71,20,100,,1
S,NORTHWEST HIGH SCHOOL,1095503576,CM61-BEAD-LA-DN-Multiple,3746 HIGHWAY 104,OPELOUSAS,LA,70570,30.57826805114746,-92.18903351,61,20,100,,1
F,SAINT LANDRY PARISH FIRE DISTRICT 3 STATION 6,2000003739,CM61-BEAD-LA-DN-Multiple,4455 GRANDE PRAIRIE HIGHWAY,WASHINGTON,LA,70589,30.67016,-92.14945,61,20,100,,1
F,SAINT JOSEPH POLICE DEPARTMENT,2000002344,CM61-BEAD-LA-DN-Multiple,125 PLANK RD,SAINT JOSEPH,LA,71366,31.91772,-91.23259,61,20,100,,1
S,TENSAS HIGH SCHOOL,2000002834,CM61-BEAD-LA-DN-Multiple,720 PLANK RD,SAINT JOSEPH,LA,71366,31.92301,-91.23866,61,20,100,,1
S,TENSAS ELEMENTARY SCHOOL,2000002852,CM61-BEAD-LA-DN-Multiple,FRONTAGE RD,ST. JOSEPH,LA,71366,31.91837,-91.23349,61,20,100,,1
H,TENSAS COMMUNITY HEALTH UNIT,2000003312,CM61-BEAD-LA-DN-Multiple,1115 LEVEE ST,SAINT JOSEPH,LA,71366,31.9029,-91.24311,61,20,100,,1
F,NORTH EAST LOUISIANA AMBULANCE SERVICE 6,2000003379,CM61-BEAD-LA-DN-Multiple,4200 MCCONNELL RD,SAINT JOSEPH,LA,71366,31.95858,-91.26961,61,20,100,,1
F,TENSAS PARISH FIRE DISTRICT 1 STATION 2,2000003432,CM61-BEAD-LA-DN-Multiple,1104 PLANK RD,SAINT JOSEPH,LA,71366,31.92436,-91.2409,61,20,100,,1
F,TENSAS PARISH FIRE DISTRICT 1 STATION 6,2000003492,CM61-BEAD-LA-DN-Multiple,2913 STATE HIGHWAY 606,NEWELLTON,LA,71357,31.95279,-91.21444,61,20,100,,1
S,TENSAS ACADEMY,2000003598,CM61-BEAD-LA-DN-Multiple,418 HIGHWAY 128,SAINT JOSEPH,LA,71366,31.91996,-91.23566,61,20,100,,1
F,TENSAS PARISH FIRE DISTRICT 1 STATION 7,2000003911,CM61-BEAD-LA-DN-Multiple,1775 STATE HIGHWAY 892,SAINT JOSEPH,LA,71366,31.95308,-91.39162,61,20,100,,1
F,LINCOLN PARISH FIRE PROTECTION DISTRICT 1,1091109453,CM61-BEAD-LA-336-2014,4786 US HIGHWAY 167,DUBACH,LA,71235,32.60106658935547,-92.64865112,40,1000,1000,,1
S,DUBACH SCHOOL,1091107592,CM61-BEAD-LA-336-2014,7710 FELLOWSHIP RD,DUBACH,LA,71235,32.696407318115234,-92.65172577,40,1000,1000,,1
F,VILLAGE OF CHOUDRANT VOLUNTEER FIRE DEPARTMENT,1091104275,CM61-BEAD-LA-336-2014,2520 UNITED STATES HIGHWAY 80,CHOUDRANT,LA,71227,32.53024673461914,-92.51620483,40,1000,1000,,1
F,WEBSTER PARISH FIRE DISTRICT 8 STATION 1,1144379907,CM61-BEAD-LA-336-2014,20947 US HIGHWAY 371,COTTON VALLEY,LA,71018,32.80236053466797,-93.4169693,40,1000,1000,,1
S,NORTH WEBSTER HIGH SCHOOL,1144424720,CM61-BEAD-LA-336-2014,101 S ARKANSAS,SPRINGHILL,LA,71075,33.00285720825195,-93.46538544,40,1000,1000,,1
S,BROWNING ELEMENTARY SCHOOL,1144426048,CM61-BEAD-LA-336-2014,505 HERRINGTON DR,SPRINGHILL,LA,71075,33.01447677612305,-93.46923065,40,1000,1000,,1
F,SPRINGHILL POLICE DEPARTMENT,1144428462,CM61-BEAD-LA-336-2014,25 CLINIC ST,SPRINGHILL,LA,71075,33.00468063354492,-93.46103668,40,1000,1000,,1
S,CHOUDRANT ELEMENTARY SCHOOL,1091103931,CM61-BEAD-LA-336-2014,160 WALKER RD,CHOUDRANT,LA,71227,32.52707290649414,-92.49868774,40,1000,1000,,1
F,OUACHITA PARISH FIRE PROTECTION DISTRICT 1 STATION 5 - SWARTZ,1310686806,CM61-BEAD-LA-336-2014,3413 STATE HIGHWAY 594,MONROE,LA,71203,32.57407760620117,-91.98538971,40,1000,1000,,1
F,BOSSIER PARISH SHERIFFS OFFICE - BENTON - SUBSTATION,1315889555,CM61-BEAD-LA-336-2014,7076 STATE HIGHWAY 3,BENTON,LA,71006,32.731407165527344,-93.73305511,40,1000,1000,,1
F,BOSSIER PARISH FIRE DISTRICT 1 STATION 5,1315891608,CM61-BEAD-LA-336-2014,3645 BELLEVUE RD,HAUGHTON,LA,71037,32.62262725830078,-93.56885529,40,1000,1000,,1
F,OUACHITA PARISH FIRE PROTECTION DISTRICT 1 STATION 9 - FAIRBANKS,1310701547,CM61-BEAD-LA-336-2014,232 STATE HIGHWAY 134,MONROE,LA,71203,32.647972106933594,-92.05341339,40,1000,1000,,1
S,STERLINGTON MIDDLE SCHOOL,1310719742,CM61-BEAD-LA-336-2014,206 HIGH AVE,STERLINGTON,LA,71280,32.69612121582031,-92.07089233,40,1000,1000,,1
S,RICHWOOD HIGH SCHOOL,1310720162,CM61-BEAD-LA-336-2014,5901 HIGHWAY 165 S,MONROE,LA,71202,32.43207931518555,-92.08943176,40,1000,1000,,1
F,BOSSIER PARISH MEDICAL SERVICES,1315851043,CM61-BEAD-LA-336-2014,102 6TH ST,BENTON,LA,71006,32.6967659,-93.74065399,40,1000,1000,,1
F,BENTON FIRE DISTRICT 4 STATION 2,1315858184,CM61-BEAD-LA-336-2014,807 PARKS RD,BENTON,LA,71006,32.651878356933594,-93.6706543,40,1000,1000,,1
F,BOSSIER PARISH FIRE DISTRICT 1 STATION 3,1315868672,CM61-BEAD-LA-336-2014,9346 STATE HIGHWAY 157,HAUGHTON,LA,71037,32.56437683105469,-93.51452637,40,1000,1000,,1
L,BENTON BRANCH LIBRARY,1315884184,CM61-BEAD-LA-336-2014,202 SIBLEY ST,BENTON,LA,71006,32.696590423583984,-93.73997498,40,1000,1000,,1
L,BRANCH & SMITH LAND COMPANY LLC,1144424070,CM61-BEAD-LA-336-2014,209 WILLOW ST,SPRINGHILL,LA,71075,33.00926208496094,-93.46457672,40,1000,1000,,1
F,ADVANCED EMERGENCY MEDICAL SERVICES INCORPORATED STATION 3,1144424610,CM61-BEAD-LA-336-2014,114 W CHURCH ST,SPRINGHILL,LA,71075,33.003841400146484,-93.46317291,40,1000,1000,,1
H,WEBSTER COUNTY HEALTH DEPARTMENT,1144425215,CM61-BEAD-LA-336-2014,110 JUNE ANTHONY DR,SPRINGHILL,LA,71075,32.99901199,-93.46244812,40,1000,1000,,1
L,SPRINGHILL BRANCH LIBRARY INC,1144428468,CM61-BEAD-LA-336-2014,217 N MAIN ST,SPRINGHILL,LA,71075,33.00419616699219,-93.46102142,40,1000,1000,,1
F,CHOUDRANT POLICE DEPARTMENT,2000002499,CM61-BEAD-LA-336-2014,2629 UNITED STATES HIGHWAY 80,CHOUDRANT,LA,71227,32.52998,-92.52219,40,1000,1000,,1
L,PARISH OF BOSSIER,2000003195,CM61-BEAD-LA-336-2014,115 CLUB HOUSE DR,BENTON,LA,71006,32.6576,-93.71837,40,1000,1000,,1
F,PLAIN DEALING POLICE DEPARTMENT,2000003543,CM61-BEAD-LA-336-2014,209 W MARY LEE AVE,PLAIN DEALING,LA,71064,32.90652,-93.70629,40,1000,1000,,1
F,DIXIE INN POLICE DEPARTMENT,1144395858,CM61-BEAD-LA-336-2014,60 SHELL ST,MINDEN,LA,71055,32.59349060058594,-93.33437347,40,1000,1000,,1
F,BENTON FIRE DISTRICT 4 STATION 1,1387969363,CM61-BEAD-LA-336-2014,306 5TH ST,BENTON,LA,71006,32.698158264160156,-93.73793793,40,1000,1000,,1
F,BENTON FIRE DISTRICT 4 STATION 5,2000003097,CM61-BEAD-LA-336-2014,651 STATE HIGHWAY 160,BENTON,LA,71006,32.79007,-93.71778,40,1000,1000,,1
S,PLAIN DEALING HIGH SCHOOL,2000002927,CM61-BEAD-LA-336-2014,300 E VANCE ST,PLAIN DEALING,LA,71064,32.9105,-93.69868,40,1000,1000,,1
F,BENTON POLICE DEPARTMENT,2000002614,CM61-BEAD-LA-336-2014,201 SIBLEY ST,BENTON,LA,71006,32.69674,-93.74042,40,1000,1000,,1
L,PARISH OF BOSSIER,2000002617,CM61-BEAD-LA-336-2014,208 E MARY LEE ST,PLAIN DEALING,LA,71064,32.9068,-93.70008,40,1000,1000,,1
F,BOSSIER PARISH EMERGENCY MEDICAL SERVICES - MEDIC ONE,2000002720,CM61-BEAD-LA-336-2014,108 S LOUISIANA ST,PLAIN DEALING,LA,71064,32.9048,-93.7056,40,1000,1000,,1
S,PLATT ELEMENTARY SCHOOL,2000003756,CM61-BEAD-LA-336-2014,4680 E HIGHWAY 80,HAUGHTON,LA,71037,32.55507,-93.56814,40,1000,1000,,1
S,PRINCETON ELEMENTARY SCHOOL,2000003891,CM61-BEAD-LA-336-2014,1895 WINFIELD RD,PRINCETON,LA,71067,32.58723,-93.53326,40,1000,1000,,1
H,STERLINGTON REHABILITATION HOSPITAL,2000003170,CM61-BEAD-LA-336-2014,370 W HICKORY ST,STERLINGTON,LA,71280,32.69565,-92.08419,40,1000,1000,,1
S,EAST OUACHITA MIDDLE SCHOOL,2000003774,CM61-BEAD-LA-336-2014,859 SWARTZ FAIRBANKS,MONROE,LA,71203,32.58703,-91.99264,40,1000,1000,,1
F,OUACHITA PARISH FIRE PROTECTION DISTRICT 1 STATION 7 KINCADE,1310696123,CM61-BEAD-LA-336-2014,3167 PRAIRIE RD,MONROE,LA,71202,32.37255859,-92.0581665,40,1000,1000,,1
F,BOSSIER PARISH EMERGENCY MEDICAL SERVICES - MEDIC THREE,1315870736,CM61-BEAD-LA-336-2014,4494 UNITED STATES HIGHWAY 80 E,HAUGHTON,LA,71037,32.55541229248047,-93.57452393,40,1000,1000,,1
F,BOSSIER PARISH FIRE DISTRICT 1 STATION 4,1315910948,CM61-BEAD-LA-336-2014,13333 STATE HIGHWAY 157,HAUGHTON,LA,71037,32.671356201171875,-93.52456665,40,1000,1000,,1
F,BOSSIER PARISH FIRE DISTRICT 7,1315905659,CM61-BEAD-LA-336-2014,718 W PALMETTO AVE,PLAIN DEALING,LA,71064,32.90623856,-93.71045685,40,1000,1000,,1
L,OUACHITA PARISH LIBRARY,1310716785,CM61-BEAD-LA-336-2014,305 KEYSTONE RD,MONROE,LA,71203,32.64731216430664,-92.06453705,40,1000,1000,,1
F,STERLINGTON POLICE DEPARTMENT,1310697288,CM61-BEAD-LA-336-2014,103 HIGH AVE,STERLINGTON,LA,71280,32.69439697265625,-92.07470703,40,1000,1000,,1
F,DUBACH POLICE DEPARTMENT,2000003278,CM61-BEAD-LA-336-2014,7833 ANNIE LEE ST,DUBACH,LA,71235,32.69653,-92.65539,40,1000,1000,,1
S,CHOUDRANT HIGH SCHOOL,2000003374,CM61-BEAD-LA-336-2014,2555 HIGHWAY 80,CHOUDRANT,LA,71227,32.52908,-92.51902,40,1000,1000,,1
F,WEBSTER PARISH FIRE DISTRICT 9 - SHONGALOO VOLUNTEER FIRE DEPARTMENT STATION 1,1388307767,CM61-BEAD-LA-336-2014,14745 STATE HIGHWAY 159,SHONGALOO,LA,71072,32.99905014038086,-93.3107605,40,1000,1000,,1
S,BROWN UPPER ELEMENTARY SCHOOL,1388310605,CM61-BEAD-LA-336-2014,804 4TH ST SW,SPRINGHILL,LA,71075,32.99586868286133,-93.46492004,40,1000,1000,,1
S,NORTH WEBSTER JUNIOR HIGH SCHOOL,1413616156,CM61-BEAD-LA-336-2014,6041 HIGHWAY 2,SAREPTA,LA,71071,32.900550842285156,-93.44644928,40,1000,1000,,1
F,SAREPTA POLICE DEPARTMENT,2000002204,CM61-BEAD-LA-336-2014,"24448 UNITED STATES HIGHWAY 371, MUNICIPAL BUILDING",SAREPTA,LA,71071,32.89657,-93.45047,40,1000,1000,,1
F,WEBSTER PARISH FIRE DISTRICT 8 - COTTON VALLEY FIRE DEPARTMENT STATION 3,2000002294,CM61-BEAD-LA-336-2014,1478 HUMBLE AVE,COTTON VALLEY,LA,71018,32.8171,-93.41318,40,1000,1000,,1
F,WEBSTER PARISH FIRE DISTRICT 8 - COTTON VALLEY FIRE DEPARTMENT STATION 2,2000002334,CM61-BEAD-LA-336-2014,22390 UNITED STATES HIGHWAY 371,COTTON VALLEY,LA,71018,32.81363,-93.42152,40,1000,1000,,1
F,WEBSTER PARISH FIRE DISTRICT 5 - SAREPTA FIRE DEPARTMENT STATION 2,2000002428,CM61-BEAD-LA-336-2014,160 FRAZIER RD,SAREPTA,LA,71071,32.92234,-93.45148,40,1000,1000,,1
F,WEBSTER PARISH FIRE PROTECTION DISTRICT 11 SPRINGHILL FIRE DISTRICT STATION 2,2000002488,CM61-BEAD-LA-336-2014,407 BUTLER ST,SPRINGHILL,LA,71075,33.00549,-93.46677,40,1000,1000,,1
F,COTTON VALLEY POLICE DEPARTMENT,2000002505,CM61-BEAD-LA-336-2014,222 RAILRD AVE,COTTON VALLEY,LA,71018,32.81747,-93.41635,40,1000,1000,,1
F,WEBSTER PARISH FIRE DISTRICT 11 - SPRINGHILL FIRE DEPARTMENT STATION 3,2000002519,CM61-BEAD-LA-336-2014,1225 PERCY BURNS RD,SPRINGHILL,LA,71075,33.00536,-93.42709,40,1000,1000,,1
F,CULLEN FIRE PROTECTION DISTRICT 6 STATION 3,2000002538,CM61-BEAD-LA-336-2014,979 KING ORCHARD RD,SAREPTA,LA,71071,32.96177,-93.40355,40,1000,1000,,1
F,SAREPTA FIRE DISTRICT 5 STATION 1,2000002539,CM61-BEAD-LA-336-2014,227 SEXTON ST,SAREPTA,LA,71071,32.89532,-93.45273,40,1000,1000,,1
F,WEBSTER PARISH FIRE DISTRICT 11 - SPRINGHILL FIRE DEPARTMENT STATION 1,2000002623,CM61-BEAD-LA-336-2014,110 S MAIN ST,SPRINGHILL,LA,71075,33.00145,-93.46152,40,1000,1000,,1
P,COTTON VALLEY HOUSING AUTHORITY,2000002750,CM61-BEAD-LA-336-2014,457 Crow Rd,Cotton Valley,LA,71018,32.81608,-93.41524,40,1000,1000,,1
F,WEBSTER PARISH FIRE DISTRICT 6 - CULLEN FIRE PROTECTION DEPARTMENT STATION 1,2000002872,CM61-BEAD-LA-336-2014,405 COYLE AVE,CULLEN,LA,71021,32.96803,-93.45526,40,1000,1000,,1
S,NORTH WEBSTER UPPER ELEMENTARY SCHOOL,2000003052,CM61-BEAD-LA-336-2014,6245 HIGHWAY 150,COTTON VALLEY,LA,71018,32.81931,-93.41767,40,1000,1000,,1
F,DIXIE INN VOLUNTEER FIRE DEPARTMENT,2000003184,CM61-BEAD-LA-336-2014,61 SHELL ST,MINDEN,LA,71055,32.59366,-93.33445,40,1000,1000,,1
F,WEBSTER PARISH FIRE DISTRICT 6 - CULLEN FIRE PROTECTION DEPARTMENT STATION 2,2000003186,CM61-BEAD-LA-336-2014,2920 WALNUT RD,SAREPTA,LA,71071,32.95002,-93.42802,40,1000,1000,,1
F,CULLEN POLICE DEPARTMENT,2000003281,CM61-BEAD-LA-336-2014,403 COYLE AVE,CULLEN,LA,71021,32.96832,-93.45499,40,1000,1000,,1
F,WEBSTER PARISH FIRE DISTRICT 8 - COTTON VALLEY FIRE DEPARTMENT STATION 4,2000003298,CM61-BEAD-LA-336-2014,1240 MARATHON RD,COTTON VALLEY,LA,71018,32.78358,-93.37737,40,1000,1000,,1
F,PAFFORD EMERGENCY MEDICAL SERVICES - CULLEN,2000003454,CM61-BEAD-LA-336-2014,541 COYLE AVE,SAREPTA,LA,71071,32.97335,-93.45595,40,1000,1000,,1
F,WEBSTER PARISH FIRE DISTRICT 8 STATION 2,2000003529,CM61-BEAD-LA-336-2014,22390 US HIGHWAY 371,COTTON VALLEY,LA,71018,32.83885,-93.43298,40,1000,1000,,1
F,WEBSTER PARISH FIRE DISTRICT 7 STORAGE FACILITY,2000003683,CM61-BEAD-LA-336-2014,1756 OLD HIGHWAY 7,COTTON VALLEY,LA,71018,32.79671,-93.4143,40,1000,1000,,1
L,DR JOHN PUGH MEMORIAL LIBRARY WEBSTER PARISH,2000003775,CM61-BEAD-LA-336-2014,MAIN ST,COTTON VALLEY,LA,71018,32.82000,-93.41741,40,1000,1000,,1
S,SOUTHSIDE ELEMENTARY SCHOOL,2000002300,CM61-BEAD-LA-DN-Multiple,1307 GOULD ST,LAKE PROVIDENCE,LA,71254,32.79471,-91.18661,61,20,100,,1
F,LAKE PROVIDENCE FIRE DEPARTMENT,2000002479,CM61-BEAD-LA-DN-Multiple,311 SPARROW ST,LAKE PROVIDENCE,LA,71254,32.80221,-91.17101,61,20,100,,1
S,GENERAL TRASS HIGH SCHOOL,2000002492,CM61-BEAD-LA-DN-Multiple,700 MARTIN LUTHER KING DR,LAKE PROVIDENCE,LA,71254,32.8012,-91.1775,61,20,100,,1
L,E CARROLL PARISH COMMUNICATION,2000002615,CM61-BEAD-LA-DN-Multiple,405 MORGAN ST,LAKE PROVIDENCE,LA,71254,32.8048,-91.17397,61,20,100,,1
F,EAST CARROLL PARISH SHERIFFS DEPARTMENT,2000002725,CM61-BEAD-LA-DN-Multiple,400 1ST ST,LAKE PROVIDENCE,LA,71254,32.80404,-91.1728,61,20,100,,1
L,EAST CARROLL PARISH LIBRARY,2000002756,CM61-BEAD-LA-DN-Multiple,109 SPARROW ST,LAKE PROVIDENCE,LA,71254,32.80429,-91.17014,61,20,100,,1
F,LAKE PROVIDENCE POLICE DEPARTMENT,2000002923,CM61-BEAD-LA-DN-Multiple,200 1ST ST,LAKE PROVIDENCE,LA,71254,32.80335,-91.17039,61,20,100,,1
S,LOUISIANA DELTA COMMUNITY COLLEGE - LAKE PROVIDENCE CAMPUS,2000003402,CM61-BEAD-LA-DN-Multiple,156 HIGHWAY 883-1,LAKE PROVIDENCE,LA,71254,32.80438,-91.16972,61,20,100,,1
S,BRIARFIELD ACADEMY,2000003484,CM61-BEAD-LA-DN-Multiple,301 RIDDLE LN,LAKE PROVIDENCE,LA,71254,32.83099,-91.18772,61,20,100,,1
H,EAST CARROLL PARISH HOSPITAL,2000003541,CM61-BEAD-LA-DN-Multiple,336 N HOOD ST,LAKE PROVIDENCE,LA,71254,32.81113,-91.17245,61,20,100,,1
H,EAST CARROLL PARISH HEALTH UNIT,2000003881,CM61-BEAD-LA-DN-Multiple,407 2ND ST,LAKE PROVIDENCE,LA,71254,32.80284,-91.17307,61,20,100,,1
S,GRIFFIN MIDDLE SCHOOL ACADEMY,2000003885,CM61-BEAD-LA-DN-Multiple,1205 GOULD ST,LAKE PROVIDENCE,LA,71254,32.79593,-91.18652,61,20,100,,1
S,TALLULAH ELEMENTARY SCHOOL,1287214512,CM61-BEAD-LA-DN-Multiple,1100 JOHNSON ST,TALLULAH,LA,71282,32.40069580078125,-91.18273926,61,20,100,,1
L,PARISH OF MADISON,1287217909,CM61-BEAD-LA-DN-Multiple,403 N MULBERRY ST,TALLULAH,LA,71282,32.41015625,-91.18470001,61,20,100,,1
S,LOUISIANA DELTA COMMUNITY COLLEGE - TALLULAH CAMPUS,1287218835,CM61-BEAD-LA-DN-Multiple,132 OLD HIGHWAY 65,TALLULAH,LA,71282,32.39708709716797,-91.20249939,61,20,100,,1
F,BEAR LAKE FIRE PROTECTION DISTRICT,2000003743,CM61-BEAD-LA-DN-Multiple,500 W BEAR LAKE RD,TALLULAH,LA,71282,32.46571,-91.2646,61,20,100,,1
F,TALLULAH POLICE DEPARTMENT,2000002695,CM61-BEAD-LA-DN-Multiple,500 E GREEN ST,TALLULAH,LA,71282,32.40845,-91.1865,61,20,100,,1
S,MADISON MIDDLE SCHOOL,2000003193,CM61-BEAD-LA-DN-Multiple,1234 MADISON HIGH DR,TALLULAH,LA,71282,32.40071,-91.18707,61,20,100,,1
S,CHRISTIAN ACRES ALTERNATIVE SCHOOL,2000003318,CM61-BEAD-LA-DN-Multiple,200 LOOP RD,TALLULAH,LA,71282,32.40848,-91.18678,61,20,100,,1
S,TALLULAH ACADEMY,2000003349,CM61-BEAD-LA-DN-Multiple,700 WOOD ST,TALLULAH,LA,71282,32.40024,-91.17679,61,20,100,,1
S,WRIGHT ELEMENTARY SCHOOL,2000003474,CM61-BEAD-LA-DN-Multiple,809 WYCHE ST,TALLULAH,LA,71282,32.4184,-91.19504,61,20,100,,1
F,DELTA VOLUNTEER FIRE DEPARTMENT,2000002914,CM61-BEAD-LA-DN-Multiple,200 JANICE AVE,DELTA,LA,71233,32.3253,-90.92479,61,20,100,,1
F,MOUND FIRE DISTRICT 1,2000003199,CM61-BEAD-LA-DN-Multiple,STATE HIGHWAY 602,TALLULAH,LA,71282,32.38198,-91.17109,61,20,100,,1
F,DELTA POLICE DEPARTMENT,2000003279,CM61-BEAD-LA-DN-Multiple,200 1ST ST,DELTA,LA,71233,32.32657,-90.92542,61,20,100,,1
F,TALLULAH CITY FIRE DEPARTMENT,2000003668,CM61-BEAD-LA-DN-Multiple,19 MASSEY ST,TALLULAH,LA,71282,32.41033,-91.19521,61,20,100,,1
F,RICHMOND POLICE DEPARTMENT,2000003669,CM61-BEAD-LA-DN-Multiple,598 WOOD ST,RICHMOND,LA,71282,32.40085,-91.17632,61,20,100,,1
H,MADISON PARISH HEALTH UNIT,1413566768,CM61-BEAD-LA-DN-Multiple,606 SNYDER ST,TALLULAH,LA,71282,32.406776428222656,-91.18580627,61,20,100,,1
H,REEVES MEMORIAL MEDICAL CENTER,1053550976,CM61-BEAD-LA-207-2017,409 FIRST ST,BERNICE,LA,71222,32.82384109,-92.65666199,71,20,100,,1
F,D'ARBONNE AMBULANCE SERVICE,1053551312,CM61-BEAD-LA-194-2017,601 CLARK ST,FARMERVILLE,LA,71241,32.77930832,-92.40385437,50,1000,1000,,1
F,ROCKY BRANCH CROSSROADS FIRE DEPARTMENT,1053557295,CM61-BEAD-LA-194-2017,10256 STATE HIGHWAY 143,FARMERVILLE,LA,71241,32.693538665771484,-92.20840454,50,1000,1000,,1
S,MT OLIVE CHRISTIAN SCHOOL,1072746310,CM61-BEAD-LA-207-2017,15349 HIGHWAY 9,ATHENS,LA,71003,32.650657653808594,-93.01978302,71,20,100,,1
F,PAFFORD EMERGENCY MEDICAL SERVICES - HOMER,1072754748,CM61-BEAD-LA-207-2017,606 E COLLEGE,HOMER,LA,71040,32.79271697998047,-93.06221008,71,20,100,,1
S,HAYNESVILLE ELEMENTARY SCHOOL,1072758768,CM61-BEAD-LA-207-2017,9777 HIGHWAY 79,HAYNESVILLE,LA,71038,32.95298385620117,-93.13253784,71,20,100,,1
L,CLAIBORNE PARISH LIBRARY,1072761866,CM61-BEAD-LA-207-2017,1919 MAIN ST,HAYNESVILLE,LA,71038,32.961856842041016,-93.13885498,71,20,100,,1
S,"Louisiana Delta Community College, Farmerville Campus (lease)",1053552953,CM61-BEAD-LA-194-2017,439 CHURCH ST,FARMERVILLE,LA,71241,32.77767878,-92.40728449,50,1000,1000,,1
S,D'ARBONNE WOODS CHARTER SCHOOL,1053570186,CM61-BEAD-LA-194-2017,1002 STERLINGTON HIGHWAY,FARMERVILLE,LA,71241,32.769432067871094,-92.39079285,50,1000,1000,,1
H,UNION GENERAL HOSPITAL,1053552191,CM61-BEAD-LA-194-2017,901 JAMES AVE,FARMERVILLE,LA,71241,32.78764724731445,-92.39237976,50,1000,1000,,1
S,CLAIBORNE ACADEMY,1072751688,CM61-BEAD-LA-194-2017,6741 HIGHWAY 79,HAYNESVILLE,LA,71038,32.86246109008789,-93.07853699,50,1000,1000,,1
F,CLAIBORNE PARISH FIRE PROTECTION DISTRICT 5 - ATHENS STATION,1072751939,CM61-BEAD-LA-207-2017,15327 STATE HIGHWAY 9,ATHENS,LA,71003,32.65172195,-93.02090454,71,20,100,,1
H,CLAIBORNE PARISH HEALTH UNIT,1072752338,CM61-BEAD-LA-207-2017,624 W MAIN ST,HOMER,LA,71040,32.79292678833008,-93.05489349,71,20,100,,1
S,HARRISONBURG HIGH SCHOOL,1136630933,CM61-BEAD-LA-194-2017,505 BUSHLEY ST,HARRISONBURG,LA,71340,31.761560440063477,-91.84331512,50,1000,1000,,1
L,CATAHOULA POST,1136630963,CM61-BEAD-LA-194-2017,104 LILLY ST,JONESVILLE,LA,71343,31.627470016479492,-91.83242035,50,1000,1000,,1
F,CATAHOULA PARISH SHERIFFS DEPARTMENT / CATAHOULA PARISH JAIL,1136631461,CM61-BEAD-LA-194-2017,301 BUSHLEY ST,HARRISONBURG,LA,71340,31.771656036376953,-91.82142639,50,1000,1000,,1
F,HARRISONBURG POLICE DEPARTMENT,1136628700,CM61-BEAD-LA-194-2017,108 SICILY ST,HARRISONBURG,LA,71340,31.77202606201172,-91.81972504,50,1000,1000,,1
F,SANDY LAKE VOLUNTEER FIRE DEPARTMENT,1136628857,CM61-BEAD-LA-194-2017,2335 STATE HIGHWAY 923,JONESVILLE,LA,71343,31.575197219848633,-91.97577667,50,1000,1000,,1
S,DELHI HIGH SCHOOL,1287255248,CM61-BEAD-LA-207-2017,413 MAIN ST,DELHI,LA,71232,32.46344757080078,-91.49172974,71,20,100,,1
F,NORTHEAST LOUISIANA AMBULANCE SERVICE 5,1136628640,CM61-BEAD-LA-194-2017,504 N BUSHLEY ST,HARRISONBURG,LA,71340,31.770566940307617,-91.82374573,50,1000,1000,,1
F,RAYVILLE POLICE DEPARTMENT,1287262962,CM61-BEAD-LA-207-2017,900 HARRISON ST,RAYVILLE,LA,71269,32.47789764404297,-91.7589035,71,20,100,,1
L,CARE CONNECTIONS,1287264400,CM61-BEAD-LA-207-2017,815 LOUISA ST,RAYVILLE,LA,71269,32.47532653808594,-91.75754547,71,20,100,,1
F,MANIFEST VOLUNTEER FIRE DEPARTMENT,1136627425,CM61-BEAD-LA-194-2017,11425 STATE HIGHWAY 8,JONESVILLE,LA,71343,31.709678649902344,-91.95979309,50,1000,1000,,1
F,CATAHOULA FIRE PROTECTION DISTRICT 6,1136628766,CM61-BEAD-LA-194-2017,151 LELAND LOOP,SICILY ISLAND,LA,71368,31.825977325439453,-91.71473694,50,1000,1000,,1
F,FOREST POLICE DEPT,1138360290,CM61-BEAD-LA-194-2017,3585 HIGHWAY 582,OAK GROVE,LA,71263,32.78280258178711,-91.40039063,50,1000,1000,,1
S,DELHI CHARTER SCHOOL,1287258145,CM61-BEAD-LA-207-2017,6940 HIGHWAY 17,DELHI,LA,71232,32.426841735839844,-91.49785614,71,20,100,,1
S,MANGHAM ELEMENTARY SCHOOL,1287259907,CM61-BEAD-LA-207-2017,419 HIXON ST,MANGHAM,LA,71259,32.31239700317383,-91.7862854,71,20,100,,1
F,CLAIBORNE PARISH FIRE DISTRICT 6 - ARIZONA STATION,1072746138,CM61-BEAD-LA-194-2017,165 ARIZONA RD,HOMER,LA,71040,32.804107666015625,-92.96511841,50,1000,1000,,1
L,CLAIBORNE PARISH LIBRARY,1072753111,CM61-BEAD-LA-207-2017,909 EDGEWOOD DR,HOMER,LA,71040,32.796058654785156,-93.06465912,71,20,100,,1
F,RICHLAND PARISH SHERIFF,1287256272,CM61-BEAD-LA-207-2017,"708 JULIA ST, SUITE 113",RAYVILLE,LA,71269,32.461570739746094,-91.49287415,71,20,100,,1
F,DELHI POLICE DEPARTMENT,1287256814,CM61-BEAD-LA-207-2017,304 TENNESSEE ST,DELHI,LA,71232,32.45545578,-91.49204254,71,20,100,,1
F,DELHI FIRE DEPARTMENT,1287256822,CM61-BEAD-LA-207-2017,209 BRDWAY ST,DELHI,LA,71232,32.45521164,-91.49253845,71,20,100,,1
F,NORTH EAST LOUISIANA AMBULANCE SERVICE 3,1287256831,CM61-BEAD-LA-207-2017,302 CINCINNATI ST,DELHI,LA,71232,32.45396805,-91.49430847,71,20,100,,1
L,CATAHOULA PARISH LIBRARY,1136629861,CM61-BEAD-LA-194-2017,300 BUSHLEY ST,HARRISONBURG,LA,71340,31.772258758544922,-91.82187653,50,1000,1000,,1
F,JONESVILLE POLICE DEPARTMENT,1136629892,CM61-BEAD-LA-194-2017,304 MOUND ST,JONESVILLE,LA,71343,31.625930786132812,-91.81459045,50,1000,1000,,1
S,"Louisiana Delta Community College, Winnsboro Campus",1287223662,CM61-BEAD-LA-207-2017,2889 HIGHWAY 15,WINNSBORO,LA,71295,32.19712773,-91.72786745,71,20,100,,1
H,FRANKLIN MEDICAL CENTER,1287223931,CM61-BEAD-LA-207-2017,2106 LOOP RD,WINNSBORO,LA,71295,32.158782958984375,-91.7068634,71,20,100,,1
S,LOUISIANA DELTA COMMUNITY COLLEGE - WINNSBORO CAMPUS,1287228675,CM61-BEAD-LA-207-2017,1710 WARREN ST,WINNSBORO,LA,71295,32.16112137,-91.72151947,71,20,100,,1
F,NORTHEAST LOUISIANA AMBULANCE SERVICE,1287231123,CM61-BEAD-LA-207-2017,233 TAYLOR AVE,WINNSBORO,LA,71295,32.168121337890625,-91.72851563,71,20,100,,1
L,JAMES BRANCH,1136629348,CM61-BEAD-LA-194-2017,920 WOODLAWN DR,JONESVILLE,LA,71343,31.61984634399414,-91.84252167,50,1000,1000,,1
L,Central LA Technical Community College Catahoula Parish Library,1136629579,CM61-BEAD-LA-194-2017,205 Pond Street,Jonesville,LA,71343,31.627723,-91.81402,50,1000,1000,,1
H,RICHLAND PARISH HOSPITAL - DELHI,1413583061,CM61-BEAD-LA-207-2017,407 CINCINNATI ST,DELHI,LA,71232,32.45400619506836,-91.49454498,71,20,100,,1
F,RAYVILLE VOLUNTEER FIRE DEPARTMENT,1413583164,CM61-BEAD-LA-207-2017,902 HARRISON ST,RAYVILLE,LA,71269,32.477901458740234,-91.75908661,71,20,100,,1
S,RAYVILLE JUNIOR HIGH SCHOOL,2000002986,CM61-BEAD-LA-207-2017,225 HIGHWAY 3048,RAYVILLE,LA,71269,32.46577,-91.74776,71,20,100,,1
F,HOMER VOLUNTEER FIRE DEPARTMENT,2000002201,CM61-BEAD-LA-207-2017,411 W MAIN ST,HOMER,LA,71040,32.79023,-93.05603,71,20,100,,1
S,HOMER JUNIOR HIGH SCHOOL,2000002205,CM61-BEAD-LA-207-2017,612 PELICAN DR,HOMER,LA,71040,32.79353,-93.06648,71,20,100,,1
F,CLAIBORNE PARISH FIRE DISTRICT 5 - HARRIS STATION,2000002244,CM61-BEAD-LA-194-2017,1381 FINCHER CREEK RD,MINDEN,LA,71055,32.69143,-93.12151,50,1000,1000,,1
F,JUNCTION CITY POLICE DEPARTMENT,2000002320,CM61-BEAD-LA-207-2017,106 W STATELINE RD,JUNCTION CITY,LA,71749,33.01425,-92.72552,71,20,100,,1
F,CLAIBORNE PARISH SHERIFFS DEPARTMENT / CLAIBORNE PARISH JAIL - WOMEN,2000002322,CM61-BEAD-LA-207-2017,613 E MAIN ST,HOMER,LA,71040,32.79291,-93.05475,71,20,100,,1
F,PAFFORD EMERGENCY MEDICAL SERVICES - HAYNESVILLE,2000002425,CM61-BEAD-LA-207-2017,10079 UNITED STATES HIGHWAY 79,HAYNESVILLE,LA,71038,32.96327,-93.14001,71,20,100,,1
S,HAYNESVILLE JR./SR. HIGH SCHOOL,2000002429,CM61-BEAD-LA-207-2017,9930 HIGHWAY 79,HAYNESVILLE,LA,71038,32.95958,-93.13772,71,20,100,,1
P,HOMER HOUSING AUTHORITY,2000002444,CM61-BEAD-LA-207-2017,302 Washington St,Homer,LA,71040,32.78844,-93.06144,71,20,100,,1
S,HOMER HIGH SCHOOL,2000002450,CM61-BEAD-LA-207-2017,1008 N MAIN,HOMER,LA,71040,32.79285,-93.06776,71,20,100,,1
F,HOMER POLICE DEPARTMENT,2000002570,CM61-BEAD-LA-207-2017,420 E MAIN ST,HOMER,LA,71040,32.79074,-93.05437,71,20,100,,1
S,HOMER ELEMENTARY SCHOOL,2000002585,CM61-BEAD-LA-207-2017,624 PELICAN DR,HOMER,LA,71040,32.79458,-93.0663,71,20,100,,1
F,CLAIBORNE PARISH FIRE DISTRICT 6 - LISBON STATION,2000002686,CM61-BEAD-LA-207-2017,115 HEBRON RD,LISBON,LA,71048,32.79665,-92.86535,71,20,100,,1
F,CLAIBORNE PARISH FIRE DISTRICT 6 - SHARON STATION,2000002761,CM61-BEAD-LA-194-2017,17545 STATE HIGHWAY 2,HOMER,LA,71040,32.80084,-92.76186,50,1000,1000,,1
F,CLAIBORNE PARISH FIRE DISTRICT 6 - WILSON STATION,2000002806,CM61-BEAD-LA-194-2017,842 JOHN KELLY RD,LILLIE,LA,71256,32.98837,-92.74033,50,1000,1000,,1
F,CLAIBORNE PARISH FIRE DISTRICT 6 - NEW HOME STATION,2000003044,CM61-BEAD-LA-194-2017,109 HOOF RD,LILLIE,LA,71256,32.98988,-92.7934,50,1000,1000,,1
F,CLAIBORNE PARISH FIRE DISTRICT 5 - SAINT JOHN STATION,2000003060,CM61-BEAD-LA-194-2017,1896 SAINT JOHN RD,HOMER,LA,71040,32.71528,-93.00079,50,1000,1000,,1
F,CLAIBORNE PARISH FIRE DISTRICT 6 - BAILEYTOWN STATION,2000003095,CM61-BEAD-LA-194-2017,1110 CYPRESS BOTTOM RD,HAYNESVILLE,LA,71038,32.97196,-92.91672,50,1000,1000,,1
F,CLAIBORNE PARISH FIRE DISTRICT 6 - ANTIOCH STATION,2000003223,CM61-BEAD-LA-194-2017,6964 STATE HIGHWAY 9,HOMER,LA,71040,32.84983,-92.9785,50,1000,1000,,1
F,CLAIBORNE PARISH FIRE DISTRICT 6 SUMMERFIELD STATION,2000003285,CM61-BEAD-LA-194-2017,4296 STATE HIGHWAY 9,SUMMERFIELD,LA,71079,32.91847,-92.80819,50,1000,1000,,1
S,DAVID WADE CORRECTIONAL CENTER,2000003489,CM61-BEAD-LA-194-2017,670 BELL HILL RD,HOMER,LA,71040,32.90189,-93.02018,50,1000,1000,,1
F,HAYNESVILLE VOLUNTEER FIRE DEPARTMENT,2000003781,CM61-BEAD-LA-207-2017,1846 SHERMAN ST,HAYNESVILLE,LA,71038,32.96237,-93.14001,71,20,100,,1
F,CLAIBORNE PARISH FIRE DISTRICT 6 - HEBRON STATION,2000003787,CM61-BEAD-LA-194-2017,3295 HEBRON RD,BERNICE,LA,71222,32.8764,-92.79677,50,1000,1000,,1
F,WISNER VOLUNTEER FIRE DEPARTMENT,1413555563,CM61-BEAD-LA-207-2017,288 HOPE ST,WISNER,LA,71378,31.980947494506836,-91.6567688,71,20,100,,1
S,FAMILY COMMUNITY CHRISTIAN SCHOOL,1413555567,CM61-BEAD-LA-207-2017,2023 HIGHWAY 15,WINNSBORO,LA,71295,32.22998809814453,-91.73403168,71,20,100,,1
S,RAYVILLE ELEMENTARY SCHOOL,2000002216,CM61-BEAD-LA-207-2017,124 LEARNING PLACE ST,RAYVILLE,LA,71269,32.46655,-91.76093,71,20,100,,1
S,START ELEMENTARY SCHOOL,2000002336,CM61-BEAD-LA-207-2017,883 CHARLESTON ST,START,LA,71279,32.48746,-91.85762,71,20,100,,1
F,WARD ONE FIRE DEPARTMENT COOK STATION,2000002490,CM61-BEAD-LA-194-2017,293 COOK RD,DELHI,LA,71232,32.43475,-91.51573,50,1000,1000,,1
S,RICHLAND CAREER CENTER AT ARCHIBALD,2000002721,CM61-BEAD-LA-207-2017,3768 HIGHWAY 15,ARCHIBALD,LA,71218,32.34931,-91.77765,71,20,100,,1
S,HOLLY RIDGE ELEMENTARY SCHOOL,2000002722,CM61-BEAD-LA-194-2017,2306 HIGHWAY 183,RAYVILLE,LA,71269,32.47017,-91.62738,50,1000,1000,,1
F,ARCHIBALD - ALTO FIRE STATION,2000002734,CM61-BEAD-LA-194-2017,1132 STATE HIGHWAY 856,ARCHIBALD,LA,71269,32.34892,-91.74748,50,1000,1000,,1
S,DELHI ELEMENTARY SCHOOL,2000002803,CM61-BEAD-LA-207-2017,509 MAIN ST,DELHI,LA,71232,32.4622,-91.4918,71,20,100,,1
F,MANGHAM VOLUNTEER FIRE DEPARTMENT,2000002817,CM61-BEAD-LA-207-2017,511 HORACE ST,MANGHAM,LA,71259,32.30829,-91.77639,71,20,100,,1
F,HOLLY RIDGE FIRE DISTRICT STATION 2,2000002853,CM61-BEAD-LA-194-2017,JAGGERS LANE AND SMALLING RD,RAYVILLE,LA,71269,32.52241,-91.64465,50,1000,1000,,1
H,RICHARDSON MEDICAL CENTER,2000002890,CM61-BEAD-LA-194-2017,254 HIGHWAY 3048,RAYVILLE,LA,71269,32.46336,-91.74904,50,1000,1000,,1
F,MED LIFE EMERGENCY MEDICAL SERVICES INCORPORATED,2000002954,CM61-BEAD-LA-207-2017,1008 S JULIA ST,RAYVILLE,LA,71269,32.47282,-91.75941,71,20,100,,1
S,MANGHAM HIGH SCHOOL,2000003455,CM61-BEAD-LA-207-2017,810 MAIN ST,MANGHAM,LA,71259,32.31031,-91.78651,71,20,100,,1
F,MANGHAM POLICE DEPARTMENT,2000003488,CM61-BEAD-LA-207-2017,306 MAIN ST,MANGHAM,LA,71259,32.30897,-91.77596,71,20,100,,1
L,PARISH OF RICHLAND,2000003572,CM61-BEAD-LA-207-2017,520 MAIN ST,DELHI,LA,71232,32.46162,-91.49284,71,20,100,,1
S,RAYVILLE HIGH SCHOOL,2000003657,CM61-BEAD-LA-207-2017,193 HIGHWAY 3048,RAYVILLE,LA,71269,32.4679,-91.74776,71,20,100,,1
F,HOLLY RIDGE FIRE DISTRICT STATION 2,2000003659,CM61-BEAD-LA-194-2017,SMALLING RD,RAYVILLE,LA,71269,32.52222,-91.6619,50,1000,1000,,1
F,ARCHIBALD - ALTO FIRE STATION,2000003724,CM61-BEAD-LA-194-2017,BESS LAKE RD,RAYVILLE,LA,71269,32.3632,-91.71701,50,1000,1000,,1
F,HOLLY RIDGE FIRE DISTRICT STATION 3,2000003867,CM61-BEAD-LA-194-2017,MENGEL RD AND MCMANUS RD,RAYVILLE,LA,71269,32.43475,-91.66216,50,1000,1000,,1
